%time,field.header.seq,field.header.stamp,field.header.frame_id,field.pose.pose.position.x,field.pose.pose.position.y,field.pose.pose.position.z,field.pose.pose.orientation.x,field.pose.pose.orientation.y,field.pose.pose.orientation.z,field.pose.pose.orientation.w,field.pose.covariance0,field.pose.covariance1,field.pose.covariance2,field.pose.covariance3,field.pose.covariance4,field.pose.covariance5,field.pose.covariance6,field.pose.covariance7,field.pose.covariance8,field.pose.covariance9,field.pose.covariance10,field.pose.covariance11,field.pose.covariance12,field.pose.covariance13,field.pose.covariance14,field.pose.covariance15,field.pose.covariance16,field.pose.covariance17,field.pose.covariance18,field.pose.covariance19,field.pose.covariance20,field.pose.covariance21,field.pose.covariance22,field.pose.covariance23,field.pose.covariance24,field.pose.covariance25,field.pose.covariance26,field.pose.covariance27,field.pose.covariance28,field.pose.covariance29,field.pose.covariance30,field.pose.covariance31,field.pose.covariance32,field.pose.covariance33,field.pose.covariance34,field.pose.covariance35
7442997297008,771,7442997297008,local_origin,201617.555358,1908386.10827,-1.72,-0.0134057646379,-0.0273541664909,0.700387930663,0.713112040027,1.58759997597,0.0,0.0,0.0,0.0,0.0,0.0,1.58759997597,0.0,0.0,0.0,0.0,0.0,0.0,6.35039990387,0.0,0.0,0.0,0.0,0.0,0.0,99999.0,0.0,0.0,0.0,0.0,0.0,0.0,99999.0,0.0,0.0,0.0,0.0,0.0,0.0,99999.0
7442997297008,772,7442997297008,local_origin,201617.576319,1908386.08581,-1.72,-0.0133593775049,-0.027376896429,0.700152220797,0.713343465862,1.58759997597,0.0,0.0,0.0,0.0,0.0,0.0,1.58759997597,0.0,0.0,0.0,0.0,0.0,0.0,6.35039990387,0.0,0.0,0.0,0.0,0.0,0.0,99999.0,0.0,0.0,0.0,0.0,0.0,0.0,99999.0,0.0,0.0,0.0,0.0,0.0,0.0,99999.0
7443195297008,773,7443195297008,local_origin,201617.59728,1908386.06336,-1.71,-0.0133796375537,-0.0274775956654,0.700591478442,0.71290781127,1.58759997597,0.0,0.0,0.0,0.0,0.0,0.0,1.58759997597,0.0,0.0,0.0,0.0,0.0,0.0,6.35039990387,0.0,0.0,0.0,0.0,0.0,0.0,99999.0,0.0,0.0,0.0,0.0,0.0,0.0,99999.0,0.0,0.0,0.0,0.0,0.0,0.0,99999.0
7443414297008,774,7443414297008,local_origin,201617.61824,1908386.0409,-1.71,-0.0135029062861,-0.0272474616166,0.700602446913,0.712903540976,1.58759997597,0.0,0.0,0.0,0.0,0.0,0.0,1.58759997597,0.0,0.0,0.0,0.0,0.0,0.0,6.35039990387,0.0,0.0,0.0,0.0,0.0,0.0,99999.0,0.0,0.0,0.0,0.0,0.0,0.0,99999.0,0.0,0.0,0.0,0.0,0.0,0.0,99999.0
7443414297008,775,7443414297008,local_origin,201617.63904,1908386.00737,-1.72,-0.0135634426882,-0.0274287164577,0.700453182458,0.713042100945,1.58759997597,0.0,0.0,0.0,0.0,0.0,0.0,1.58759997597,0.0,0.0,0.0,0.0,0.0,0.0,6.35039990387,0.0,0.0,0.0,0.0,0.0,0.0,99999.0,0.0,0.0,0.0,0.0,0.0,0.0,99999.0,0.0,0.0,0.0,0.0,0.0,0.0,99999.0
7443608297008,776,7443608297008,local_origin,201617.64936,1908385.98507,-1.72,-0.0133729383315,-0.0275066609726,0.70047088581,0.713025305481,1.58759997597,0.0,0.0,0.0,0.0,0.0,0.0,1.58759997597,0.0,0.0,0.0,0.0,0.0,0.0,6.35039990387,0.0,0.0,0.0,0.0,0.0,0.0,99999.0,0.0,0.0,0.0,0.0,0.0,0.0,99999.0,0.0,0.0,0.0,0.0,0.0,0.0,99999.0
7443805297008,777,7443805297008,local_origin,201617.659679,1908385.96276,-1.72,-0.0134979747957,-0.0273502051625,0.700045618179,0.713446496538,1.58759997597,0.0,0.0,0.0,0.0,0.0,0.0,1.58759997597,0.0,0.0,0.0,0.0,0.0,0.0,6.35039990387,0.0,0.0,0.0,0.0,0.0,0.0,99999.0,0.0,0.0,0.0,0.0,0.0,0.0,99999.0,0.0,0.0,0.0,0.0,0.0,0.0,99999.0
7444005297008,778,7444005297008,local_origin,201617.669999,1908385.94046,-1.73,-0.0133273015356,-0.0273460248021,0.700287827848,0.713212125619,1.58759997597,0.0,0.0,0.0,0.0,0.0,0.0,1.58759997597,0.0,0.0,0.0,0.0,0.0,0.0,6.35039990387,0.0,0.0,0.0,0.0,0.0,0.0,99999.0,0.0,0.0,0.0,0.0,0.0,0.0,99999.0,0.0,0.0,0.0,0.0,0.0,0.0,99999.0
7444005297008,779,7444005297008,local_origin,201617.669516,1908385.90724,-1.74,-0.0132116966721,-0.0274961457941,0.700224437659,0.713270740983,1.58759997597,0.0,0.0,0.0,0.0,0.0,0.0,1.58759997597,0.0,0.0,0.0,0.0,0.0,0.0,6.35039990387,0.0,0.0,0.0,0.0,0.0,0.0,99999.0,0.0,0.0,0.0,0.0,0.0,0.0,99999.0,0.0,0.0,0.0,0.0,0.0,0.0,99999.0
7444204297008,780,7444204297008,local_origin,201617.679675,1908385.87387,-1.74,-0.0134475705971,-0.0274280900042,0.70054747121,0.71295168371,1.76890011415,0.0,0.0,0.0,0.0,0.0,0.0,1.76890011415,0.0,0.0,0.0,0.0,0.0,0.0,7.07560045662,0.0,0.0,0.0,0.0,0.0,0.0,99999.0,0.0,0.0,0.0,0.0,0.0,0.0,99999.0,0.0,0.0,0.0,0.0,0.0,0.0,99999.0
7444403297008,781,7444403297008,local_origin,201617.679353,1908385.85172,-1.74,-0.0133113235939,-0.0274367985912,0.700542817623,0.71295847805,1.76890011415,0.0,0.0,0.0,0.0,0.0,0.0,1.76890011415,0.0,0.0,0.0,0.0,0.0,0.0,7.07560045662,0.0,0.0,0.0,0.0,0.0,0.0,99999.0,0.0,0.0,0.0,0.0,0.0,0.0,99999.0,0.0,0.0,0.0,0.0,0.0,0.0,99999.0
7444403297008,782,7444403297008,local_origin,201617.67887,1908385.8185,-1.74,-0.0133019255149,-0.0278163673046,0.700578693656,0.712908691546,1.58759997597,0.0,0.0,0.0,0.0,0.0,0.0,1.58759997597,0.0,0.0,0.0,0.0,0.0,0.0,6.35039990387,0.0,0.0,0.0,0.0,0.0,0.0,99999.0,0.0,0.0,0.0,0.0,0.0,0.0,99999.0,0.0,0.0,0.0,0.0,0.0,0.0,99999.0
7444603297008,783,7444603297008,local_origin,201617.689029,1908385.78512,-1.75,-0.0133524170999,-0.0275595903624,0.700451635934,0.713042556692,1.58759997597,0.0,0.0,0.0,0.0,0.0,0.0,1.58759997597,0.0,0.0,0.0,0.0,0.0,0.0,6.35039990387,0.0,0.0,0.0,0.0,0.0,0.0,99999.0,0.0,0.0,0.0,0.0,0.0,0.0,99999.0,0.0,0.0,0.0,0.0,0.0,0.0,99999.0
7444806297008,784,7444806297008,local_origin,201617.688546,1908385.7519,-1.75,-0.0132983793019,-0.0277279055965,0.700246809084,0.713238194944,1.58759997597,0.0,0.0,0.0,0.0,0.0,0.0,1.58759997597,0.0,0.0,0.0,0.0,0.0,0.0,6.35039990387,0.0,0.0,0.0,0.0,0.0,0.0,99999.0,0.0,0.0,0.0,0.0,0.0,0.0,99999.0,0.0,0.0,0.0,0.0,0.0,0.0,99999.0
7444806297008,785,7444806297008,local_origin,201617.687742,1908385.69653,-1.73,-0.0132243631978,-0.0276923858302,0.700199678421,0.713287220077,1.58759997597,0.0,0.0,0.0,0.0,0.0,0.0,1.58759997597,0.0,0.0,0.0,0.0,0.0,0.0,6.35039990387,0.0,0.0,0.0,0.0,0.0,0.0,99999.0,0.0,0.0,0.0,0.0,0.0,0.0,99999.0,0.0,0.0,0.0,0.0,0.0,0.0,99999.0
7445003297008,786,7445003297008,local_origin,201617.687259,1908385.66331,-1.72,-0.0133079866402,-0.0274085047301,0.700359588606,0.713139620276,1.58759997597,0.0,0.0,0.0,0.0,0.0,0.0,1.58759997597,0.0,0.0,0.0,0.0,0.0,0.0,6.35039990387,0.0,0.0,0.0,0.0,0.0,0.0,99999.0,0.0,0.0,0.0,0.0,0.0,0.0,99999.0,0.0,0.0,0.0,0.0,0.0,0.0,99999.0
7445199297008,787,7445199297008,local_origin,201617.697257,1908385.61886,-1.72,-0.0132796291554,-0.0276372814653,0.700481180337,0.713011884975,1.58759997597,0.0,0.0,0.0,0.0,0.0,0.0,1.58759997597,0.0,0.0,0.0,0.0,0.0,0.0,6.35039990387,0.0,0.0,0.0,0.0,0.0,0.0,99999.0,0.0,0.0,0.0,0.0,0.0,0.0,99999.0,0.0,0.0,0.0,0.0,0.0,0.0,99999.0
7445395297008,788,7445395297008,local_origin,201617.696614,1908385.57456,-1.72,-0.0132353262638,-0.0275472774534,0.70066302134,0.712837501938,1.58759997597,0.0,0.0,0.0,0.0,0.0,0.0,1.58759997597,0.0,0.0,0.0,0.0,0.0,0.0,6.35039990387,0.0,0.0,0.0,0.0,0.0,0.0,99999.0,0.0,0.0,0.0,0.0,0.0,0.0,99999.0,0.0,0.0,0.0,0.0,0.0,0.0,99999.0
7445395297008,789,7445395297008,local_origin,201617.696131,1908385.54134,-1.72,-0.0134834903277,-0.0275103363023,0.700764294878,0.71273471917,1.58759997597,0.0,0.0,0.0,0.0,0.0,0.0,1.58759997597,0.0,0.0,0.0,0.0,0.0,0.0,6.35039990387,0.0,0.0,0.0,0.0,0.0,0.0,99999.0,0.0,0.0,0.0,0.0,0.0,0.0,99999.0,0.0,0.0,0.0,0.0,0.0,0.0,99999.0
7445590297008,790,7445590297008,local_origin,201617.695488,1908385.49705,-1.72,-0.0132608204608,-0.0276285628306,0.700684236263,0.712813028927,1.58759997597,0.0,0.0,0.0,0.0,0.0,0.0,1.58759997597,0.0,0.0,0.0,0.0,0.0,0.0,6.35039990387,0.0,0.0,0.0,0.0,0.0,0.0,99999.0,0.0,0.0,0.0,0.0,0.0,0.0,99999.0,0.0,0.0,0.0,0.0,0.0,0.0,99999.0
7445806297008,791,7445806297008,local_origin,201617.705646,1908385.46367,-1.72,-0.0132950309825,-0.0277404163773,0.700557198694,0.712932902038,1.58759997597,0.0,0.0,0.0,0.0,0.0,0.0,1.58759997597,0.0,0.0,0.0,0.0,0.0,0.0,6.35039990387,0.0,0.0,0.0,0.0,0.0,0.0,99999.0,0.0,0.0,0.0,0.0,0.0,0.0,99999.0,0.0,0.0,0.0,0.0,0.0,0.0,99999.0
7445806297008,792,7445806297008,local_origin,201617.705003,1908385.41938,-1.73,-0.0133336957993,-0.0276055314286,0.700399224192,0.713092612458,1.58759997597,0.0,0.0,0.0,0.0,0.0,0.0,1.58759997597,0.0,0.0,0.0,0.0,0.0,0.0,6.35039990387,0.0,0.0,0.0,0.0,0.0,0.0,99999.0,0.0,0.0,0.0,0.0,0.0,0.0,99999.0,0.0,0.0,0.0,0.0,0.0,0.0,99999.0
7446003297008,793,7446003297008,local_origin,201617.704359,1908385.37508,-1.74,-0.0134883953039,-0.0274225151294,0.700315663811,0.713178827418,1.58759997597,0.0,0.0,0.0,0.0,0.0,0.0,1.58759997597,0.0,0.0,0.0,0.0,0.0,0.0,6.35039990387,0.0,0.0,0.0,0.0,0.0,0.0,99999.0,0.0,0.0,0.0,0.0,0.0,0.0,99999.0,0.0,0.0,0.0,0.0,0.0,0.0,99999.0
7446197297008,794,7446197297008,local_origin,201617.703716,1908385.33079,-1.75,-0.0129824342213,-0.0277155696844,0.700266115642,0.713225539982,1.58759997597,0.0,0.0,0.0,0.0,0.0,0.0,1.58759997597,0.0,0.0,0.0,0.0,0.0,0.0,6.35039990387,0.0,0.0,0.0,0.0,0.0,0.0,99999.0,0.0,0.0,0.0,0.0,0.0,0.0,99999.0,0.0,0.0,0.0,0.0,0.0,0.0,99999.0
7446197297008,795,7446197297008,local_origin,201617.713553,1908385.27526,-1.75,-0.0130344621152,-0.0276564834877,0.700514875503,0.712982560037,1.58759997597,0.0,0.0,0.0,0.0,0.0,0.0,1.58759997597,0.0,0.0,0.0,0.0,0.0,0.0,6.35039990387,0.0,0.0,0.0,0.0,0.0,0.0,99999.0,0.0,0.0,0.0,0.0,0.0,0.0,99999.0,0.0,0.0,0.0,0.0,0.0,0.0,99999.0
7446413297008,796,7446413297008,local_origin,201617.712748,1908385.21989,-1.76,-0.0134546934803,-0.0275045540967,0.700561878519,0.712934446561,1.58759997597,0.0,0.0,0.0,0.0,0.0,0.0,1.58759997597,0.0,0.0,0.0,0.0,0.0,0.0,6.35039990387,0.0,0.0,0.0,0.0,0.0,0.0,99999.0,0.0,0.0,0.0,0.0,0.0,0.0,99999.0,0.0,0.0,0.0,0.0,0.0,0.0,99999.0
7446604297008,797,7446604297008,local_origin,201617.722746,1908385.17544,-1.76,-0.0131330337784,-0.0276917049813,0.700741469269,0.712756680885,1.87690001307,0.0,0.0,0.0,0.0,0.0,0.0,1.87690001307,0.0,0.0,0.0,0.0,0.0,0.0,7.50760005226,0.0,0.0,0.0,0.0,0.0,0.0,99999.0,0.0,0.0,0.0,0.0,0.0,0.0,99999.0,0.0,0.0,0.0,0.0,0.0,0.0,99999.0
7446604297008,798,7446604297008,local_origin,201617.732583,1908385.11992,-1.77,-0.0133556328301,-0.0276459268157,0.700583018949,0.712910066812,1.87690001307,0.0,0.0,0.0,0.0,0.0,0.0,1.87690001307,0.0,0.0,0.0,0.0,0.0,0.0,7.50760005226,0.0,0.0,0.0,0.0,0.0,0.0,99999.0,0.0,0.0,0.0,0.0,0.0,0.0,99999.0,0.0,0.0,0.0,0.0,0.0,0.0,99999.0
7446799297008,799,7446799297008,local_origin,201617.74242,1908385.0644,-1.77,-0.0133595991484,-0.0274393681858,0.700577027003,0.712923860885,1.71609985008,0.0,0.0,0.0,0.0,0.0,0.0,1.71609985008,0.0,0.0,0.0,0.0,0.0,0.0,6.86439940033,0.0,0.0,0.0,0.0,0.0,0.0,99999.0,0.0,0.0,0.0,0.0,0.0,0.0,99999.0,0.0,0.0,0.0,0.0,0.0,0.0,99999.0
7446994297008,800,7446994297008,local_origin,201617.763059,1908385.01979,-1.77,-0.0131136425437,-0.027695351242,0.700478034134,0.713015794772,1.71609985008,0.0,0.0,0.0,0.0,0.0,0.0,1.71609985008,0.0,0.0,0.0,0.0,0.0,0.0,6.86439940033,0.0,0.0,0.0,0.0,0.0,0.0,99999.0,0.0,0.0,0.0,0.0,0.0,0.0,99999.0,0.0,0.0,0.0,0.0,0.0,0.0,99999.0
7446994297008,801,7446994297008,local_origin,201617.783537,1908384.96412,-1.77,-0.0132006732349,-0.0274399361119,0.700298530965,0.713200364316,1.71609985008,0.0,0.0,0.0,0.0,0.0,0.0,1.71609985008,0.0,0.0,0.0,0.0,0.0,0.0,6.86439940033,0.0,0.0,0.0,0.0,0.0,0.0,99999.0,0.0,0.0,0.0,0.0,0.0,0.0,99999.0,0.0,0.0,0.0,0.0,0.0,0.0,99999.0
7447232297008,802,7447232297008,local_origin,201617.804337,1908384.93058,-1.77,-0.0133141864637,-0.0271248677591,0.700579064092,0.712934743818,1.71609985008,0.0,0.0,0.0,0.0,0.0,0.0,1.71609985008,0.0,0.0,0.0,0.0,0.0,0.0,6.86439940033,0.0,0.0,0.0,0.0,0.0,0.0,99999.0,0.0,0.0,0.0,0.0,0.0,0.0,99999.0,0.0,0.0,0.0,0.0,0.0,0.0,99999.0
7447405297008,803,7447405297008,local_origin,201617.825298,1908384.90813,-1.77,-0.0131623484225,-0.0274075338139,0.700581363437,0.712924493112,1.71609985008,0.0,0.0,0.0,0.0,0.0,0.0,1.71609985008,0.0,0.0,0.0,0.0,0.0,0.0,6.86439940033,0.0,0.0,0.0,0.0,0.0,0.0,99999.0,0.0,0.0,0.0,0.0,0.0,0.0,99999.0,0.0,0.0,0.0,0.0,0.0,0.0,99999.0
7447601297008,804,7447601297008,local_origin,201617.846097,1908384.8746,-1.77,-0.0131677179883,-0.0272584312577,0.700922248042,0.712594970041,1.71609985008,0.0,0.0,0.0,0.0,0.0,0.0,1.71609985008,0.0,0.0,0.0,0.0,0.0,0.0,6.86439940033,0.0,0.0,0.0,0.0,0.0,0.0,99999.0,0.0,0.0,0.0,0.0,0.0,0.0,99999.0,0.0,0.0,0.0,0.0,0.0,0.0,99999.0
7447601297008,805,7447601297008,local_origin,201617.867219,1908384.86321,-1.77,-0.0133140021023,-0.0272292977325,0.700939333416,0.712576559791,1.71609985008,0.0,0.0,0.0,0.0,0.0,0.0,1.71609985008,0.0,0.0,0.0,0.0,0.0,0.0,6.86439940033,0.0,0.0,0.0,0.0,0.0,0.0,99999.0,0.0,0.0,0.0,0.0,0.0,0.0,99999.0,0.0,0.0,0.0,0.0,0.0,0.0,99999.0
7447802297008,806,7447802297008,local_origin,201617.88834,1908384.85183,-1.76,-0.0130750662322,-0.0274976617338,0.700933360615,0.712576553936,1.71609985008,0.0,0.0,0.0,0.0,0.0,0.0,1.71609985008,0.0,0.0,0.0,0.0,0.0,0.0,6.86439940033,0.0,0.0,0.0,0.0,0.0,0.0,99999.0,0.0,0.0,0.0,0.0,0.0,0.0,99999.0,0.0,0.0,0.0,0.0,0.0,0.0,99999.0
7447996297008,807,7447996297008,local_origin,201617.909623,1908384.85152,-1.76,-0.013330928561,-0.0272665688437,0.70084505461,0.71266754521,1.71609985008,0.0,0.0,0.0,0.0,0.0,0.0,1.71609985008,0.0,0.0,0.0,0.0,0.0,0.0,6.86439940033,0.0,0.0,0.0,0.0,0.0,0.0,99999.0,0.0,0.0,0.0,0.0,0.0,0.0,99999.0,0.0,0.0,0.0,0.0,0.0,0.0,99999.0
7447996297008,808,7447996297008,local_origin,201617.920264,1908384.85137,-1.77,-0.0134985682485,-0.0273967184129,0.700758861241,0.712744152461,1.71609985008,0.0,0.0,0.0,0.0,0.0,0.0,1.71609985008,0.0,0.0,0.0,0.0,0.0,0.0,6.86439940033,0.0,0.0,0.0,0.0,0.0,0.0,99999.0,0.0,0.0,0.0,0.0,0.0,0.0,99999.0,0.0,0.0,0.0,0.0,0.0,0.0,99999.0
7448212297008,809,7448212297008,local_origin,201617.930744,1908384.84014,-1.78,-0.012789229964,-0.0281347953049,0.700814849534,0.71267342841,1.71609985008,0.0,0.0,0.0,0.0,0.0,0.0,1.71609985008,0.0,0.0,0.0,0.0,0.0,0.0,6.86439940033,0.0,0.0,0.0,0.0,0.0,0.0,99999.0,0.0,0.0,0.0,0.0,0.0,0.0,99999.0,0.0,0.0,0.0,0.0,0.0,0.0,99999.0
7448410297008,810,7448410297008,local_origin,201617.951866,1908384.82876,-1.77,-0.0133154662084,-0.027790935527,0.700755170104,0.712735963618,1.71609985008,0.0,0.0,0.0,0.0,0.0,0.0,1.71609985008,0.0,0.0,0.0,0.0,0.0,0.0,6.86439940033,0.0,0.0,0.0,0.0,0.0,0.0,99999.0,0.0,0.0,0.0,0.0,0.0,0.0,99999.0,0.0,0.0,0.0,0.0,0.0,0.0,99999.0
7448410297008,811,7448410297008,local_origin,201617.972988,1908384.81737,-1.77,-0.0130900212775,-0.026893627879,0.701082660427,0.712452445691,1.71609985008,0.0,0.0,0.0,0.0,0.0,0.0,1.71609985008,0.0,0.0,0.0,0.0,0.0,0.0,6.86439940033,0.0,0.0,0.0,0.0,0.0,0.0,99999.0,0.0,0.0,0.0,0.0,0.0,0.0,99999.0,0.0,0.0,0.0,0.0,0.0,0.0,99999.0
7448605297008,812,7448605297008,local_origin,201617.994109,1908384.80599,-1.77,-0.0130153840385,-0.027227271361,0.700890495078,0.71263019118,1.58759997597,0.0,0.0,0.0,0.0,0.0,0.0,1.58759997597,0.0,0.0,0.0,0.0,0.0,0.0,6.35039990387,0.0,0.0,0.0,0.0,0.0,0.0,99999.0,0.0,0.0,0.0,0.0,0.0,0.0,99999.0,0.0,0.0,0.0,0.0,0.0,0.0,99999.0
7448798297008,813,7448798297008,local_origin,201618.026033,1908384.80553,-1.77,-0.0132007574619,-0.0271696642265,0.701194080404,0.712330268173,1.71609985008,0.0,0.0,0.0,0.0,0.0,0.0,1.71609985008,0.0,0.0,0.0,0.0,0.0,0.0,6.86439940033,0.0,0.0,0.0,0.0,0.0,0.0,99999.0,0.0,0.0,0.0,0.0,0.0,0.0,99999.0,0.0,0.0,0.0,0.0,0.0,0.0,99999.0
7448798297008,814,7448798297008,local_origin,201618.036674,1908384.80537,-1.77,-0.0131968204534,-0.0271757119162,0.701115494909,0.71240745884,1.71609985008,0.0,0.0,0.0,0.0,0.0,0.0,1.71609985008,0.0,0.0,0.0,0.0,0.0,0.0,6.86439940033,0.0,0.0,0.0,0.0,0.0,0.0,99999.0,0.0,0.0,0.0,0.0,0.0,0.0,99999.0,0.0,0.0,0.0,0.0,0.0,0.0,99999.0
7448998297008,815,7448998297008,local_origin,201618.036835,1908384.81645,-1.77,-0.0136859489423,-0.0272109855391,0.700948951082,0.712560751827,1.71609985008,0.0,0.0,0.0,0.0,0.0,0.0,1.71609985008,0.0,0.0,0.0,0.0,0.0,0.0,6.86439940033,0.0,0.0,0.0,0.0,0.0,0.0,99999.0,0.0,0.0,0.0,0.0,0.0,0.0,99999.0,0.0,0.0,0.0,0.0,0.0,0.0,99999.0
7449202297008,816,7449202297008,local_origin,201618.047637,1908384.82737,-1.79,-0.0138993895795,-0.0267561962972,0.700947271696,0.712575494408,1.71609985008,0.0,0.0,0.0,0.0,0.0,0.0,1.71609985008,0.0,0.0,0.0,0.0,0.0,0.0,6.86439940033,0.0,0.0,0.0,0.0,0.0,0.0,99999.0,0.0,0.0,0.0,0.0,0.0,0.0,99999.0,0.0,0.0,0.0,0.0,0.0,0.0,99999.0
7449395297008,817,7449395297008,local_origin,201618.036996,1908384.82752,-1.8,-0.013954041765,-0.0270075262496,0.700923891429,0.712587943111,1.71609985008,0.0,0.0,0.0,0.0,0.0,0.0,1.71609985008,0.0,0.0,0.0,0.0,0.0,0.0,6.86439940033,0.0,0.0,0.0,0.0,0.0,0.0,99999.0,0.0,0.0,0.0,0.0,0.0,0.0,99999.0,0.0,0.0,0.0,0.0,0.0,0.0,99999.0
7449395297008,818,7449395297008,local_origin,201618.037157,1908384.83859,-1.77,-0.0135980598132,-0.0272940403606,0.701162610328,0.712349016991,1.71609985008,0.0,0.0,0.0,0.0,0.0,0.0,1.71609985008,0.0,0.0,0.0,0.0,0.0,0.0,6.86439940033,0.0,0.0,0.0,0.0,0.0,0.0,99999.0,0.0,0.0,0.0,0.0,0.0,0.0,99999.0,0.0,0.0,0.0,0.0,0.0,0.0,99999.0
7449592297008,819,7449592297008,local_origin,201618.026676,1908384.84982,-1.75,-0.0134723495932,-0.0270037826911,0.701240104925,0.712286183189,1.71609985008,0.0,0.0,0.0,0.0,0.0,0.0,1.71609985008,0.0,0.0,0.0,0.0,0.0,0.0,6.86439940033,0.0,0.0,0.0,0.0,0.0,0.0,99999.0,0.0,0.0,0.0,0.0,0.0,0.0,99999.0,0.0,0.0,0.0,0.0,0.0,0.0,99999.0
7449790297008,820,7449790297008,local_origin,201618.016196,1908384.86105,-1.73,-0.0130958052428,-0.0275147341588,0.701508250804,0.712009559868,1.71609985008,0.0,0.0,0.0,0.0,0.0,0.0,1.71609985008,0.0,0.0,0.0,0.0,0.0,0.0,6.86439940033,0.0,0.0,0.0,0.0,0.0,0.0,99999.0,0.0,0.0,0.0,0.0,0.0,0.0,99999.0,0.0,0.0,0.0,0.0,0.0,0.0,99999.0
7449790297008,821,7449790297008,local_origin,201617.984755,1908384.89474,-1.73,-0.0131435198199,-0.0273841589009,0.701433869151,0.712086991129,1.71609985008,0.0,0.0,0.0,0.0,0.0,0.0,1.71609985008,0.0,0.0,0.0,0.0,0.0,0.0,6.86439940033,0.0,0.0,0.0,0.0,0.0,0.0,99999.0,0.0,0.0,0.0,0.0,0.0,0.0,99999.0,0.0,0.0,0.0,0.0,0.0,0.0,99999.0
7450005297008,822,7450005297008,local_origin,201617.963955,1908384.92827,-1.72,-0.0131875652476,-0.0273239615675,0.701461345182,0.712061423237,1.71609985008,0.0,0.0,0.0,0.0,0.0,0.0,1.71609985008,0.0,0.0,0.0,0.0,0.0,0.0,6.86439940033,0.0,0.0,0.0,0.0,0.0,0.0,99999.0,0.0,0.0,0.0,0.0,0.0,0.0,99999.0,0.0,0.0,0.0,0.0,0.0,0.0,99999.0
7450202297008,823,7450202297008,local_origin,201617.943155,1908384.9618,-1.72,-0.0129611227702,-0.027688434498,0.701256245959,0.712253492371,1.71609985008,0.0,0.0,0.0,0.0,0.0,0.0,1.71609985008,0.0,0.0,0.0,0.0,0.0,0.0,6.86439940033,0.0,0.0,0.0,0.0,0.0,0.0,99999.0,0.0,0.0,0.0,0.0,0.0,0.0,99999.0,0.0,0.0,0.0,0.0,0.0,0.0,99999.0
7450202297008,824,7450202297008,local_origin,201617.922355,1908384.99533,-1.72,-0.0132404876809,-0.0271286660056,0.701145984799,0.712378433817,1.71609985008,0.0,0.0,0.0,0.0,0.0,0.0,1.71609985008,0.0,0.0,0.0,0.0,0.0,0.0,6.86439940033,0.0,0.0,0.0,0.0,0.0,0.0,99999.0,0.0,0.0,0.0,0.0,0.0,0.0,99999.0,0.0,0.0,0.0,0.0,0.0,0.0,99999.0
7450398297008,825,7450398297008,local_origin,201617.901556,1908385.02886,-1.71,-0.0131690879634,-0.027318739066,0.701153092732,0.7123654976,2.37159988251,0.0,0.0,0.0,0.0,0.0,0.0,2.37159988251,0.0,0.0,0.0,0.0,0.0,0.0,9.48639953003,0.0,0.0,0.0,0.0,0.0,0.0,99999.0,0.0,0.0,0.0,0.0,0.0,0.0,99999.0,0.0,0.0,0.0,0.0,0.0,0.0,99999.0
7450592297008,826,7450592297008,local_origin,201617.880756,1908385.06239,-1.71,-0.0129479238346,-0.0275850758575,0.70117295323,0.712339739532,2.37159988251,0.0,0.0,0.0,0.0,0.0,0.0,2.37159988251,0.0,0.0,0.0,0.0,0.0,0.0,9.48639953003,0.0,0.0,0.0,0.0,0.0,0.0,99999.0,0.0,0.0,0.0,0.0,0.0,0.0,99999.0,0.0,0.0,0.0,0.0,0.0,0.0,99999.0
7450592297008,827,7450592297008,local_origin,201617.860117,1908385.10699,-1.71,-0.0135780115686,-0.0270210815346,0.701459640953,0.712067321866,2.37159988251,0.0,0.0,0.0,0.0,0.0,0.0,2.37159988251,0.0,0.0,0.0,0.0,0.0,0.0,9.48639953003,0.0,0.0,0.0,0.0,0.0,0.0,99999.0,0.0,0.0,0.0,0.0,0.0,0.0,99999.0,0.0,0.0,0.0,0.0,0.0,0.0,99999.0
7450808297008,828,7450808297008,local_origin,201617.839317,1908385.14052,-1.71,-0.0132216172862,-0.0273581198003,0.701600669154,0.711922203025,2.37159988251,0.0,0.0,0.0,0.0,0.0,0.0,2.37159988251,0.0,0.0,0.0,0.0,0.0,0.0,9.48639953003,0.0,0.0,0.0,0.0,0.0,0.0,99999.0,0.0,0.0,0.0,0.0,0.0,0.0,99999.0,0.0,0.0,0.0,0.0,0.0,0.0,99999.0
7451003297008,829,7451003297008,local_origin,201617.818678,1908385.18513,-1.71,-0.0132049709075,-0.027360828405,0.701740981897,0.711784102196,2.37159988251,0.0,0.0,0.0,0.0,0.0,0.0,2.37159988251,0.0,0.0,0.0,0.0,0.0,0.0,9.48639953003,0.0,0.0,0.0,0.0,0.0,0.0,99999.0,0.0,0.0,0.0,0.0,0.0,0.0,99999.0,0.0,0.0,0.0,0.0,0.0,0.0,99999.0
7451003297008,830,7451003297008,local_origin,201617.798039,1908385.22973,-1.71,-0.0135991546334,-0.0268853441193,0.701550115577,0.711982918755,2.37159988251,0.0,0.0,0.0,0.0,0.0,0.0,2.37159988251,0.0,0.0,0.0,0.0,0.0,0.0,9.48639953003,0.0,0.0,0.0,0.0,0.0,0.0,99999.0,0.0,0.0,0.0,0.0,0.0,0.0,99999.0,0.0,0.0,0.0,0.0,0.0,0.0,99999.0
7451200297008,831,7451200297008,local_origin,201617.777239,1908385.26326,-1.7,-0.0130891636143,-0.027246768959,0.701535275896,0.711993359555,2.37159988251,0.0,0.0,0.0,0.0,0.0,0.0,2.37159988251,0.0,0.0,0.0,0.0,0.0,0.0,9.48639953003,0.0,0.0,0.0,0.0,0.0,0.0,99999.0,0.0,0.0,0.0,0.0,0.0,0.0,99999.0,0.0,0.0,0.0,0.0,0.0,0.0,99999.0
7451397297008,832,7451397297008,local_origin,201617.767081,1908385.29664,-1.7,-0.0133864366317,-0.027103917696,0.701541425679,0.711987225318,2.37159988251,0.0,0.0,0.0,0.0,0.0,0.0,2.37159988251,0.0,0.0,0.0,0.0,0.0,0.0,9.48639953003,0.0,0.0,0.0,0.0,0.0,0.0,99999.0,0.0,0.0,0.0,0.0,0.0,0.0,99999.0,0.0,0.0,0.0,0.0,0.0,0.0,99999.0
7451594297008,833,7451594297008,local_origin,201617.756761,1908385.31894,-1.7,-0.0134734777145,-0.0270407547857,0.701621767001,0.711908813718,2.37159988251,0.0,0.0,0.0,0.0,0.0,0.0,2.37159988251,0.0,0.0,0.0,0.0,0.0,0.0,9.48639953003,0.0,0.0,0.0,0.0,0.0,0.0,99999.0,0.0,0.0,0.0,0.0,0.0,0.0,99999.0,0.0,0.0,0.0,0.0,0.0,0.0,99999.0
7451594297008,834,7451594297008,local_origin,201617.746442,1908385.34124,-1.69,-0.0131829579934,-0.0273489258975,0.701830726603,0.71169647819,1.98809990587,0.0,0.0,0.0,0.0,0.0,0.0,1.98809990587,0.0,0.0,0.0,0.0,0.0,0.0,7.95239962349,0.0,0.0,0.0,0.0,0.0,0.0,99999.0,0.0,0.0,0.0,0.0,0.0,0.0,99999.0,0.0,0.0,0.0,0.0,0.0,0.0,99999.0
7451787297008,835,7451787297008,local_origin,201617.746281,1908385.33017,-1.69,-0.0133060607912,-0.0272961401169,0.701795230091,0.711731216474,2.37159988251,0.0,0.0,0.0,0.0,0.0,0.0,2.37159988251,0.0,0.0,0.0,0.0,0.0,0.0,9.48639953003,0.0,0.0,0.0,0.0,0.0,0.0,99999.0,0.0,0.0,0.0,0.0,0.0,0.0,99999.0,0.0,0.0,0.0,0.0,0.0,0.0,99999.0
7451983297008,836,7451983297008,local_origin,201617.7566,1908385.30787,-1.69,-0.0133062074434,-0.0272624550281,0.701973287318,0.711556889702,1.98809990587,0.0,0.0,0.0,0.0,0.0,0.0,1.98809990587,0.0,0.0,0.0,0.0,0.0,0.0,7.95239962349,0.0,0.0,0.0,0.0,0.0,0.0,99999.0,0.0,0.0,0.0,0.0,0.0,0.0,99999.0,0.0,0.0,0.0,0.0,0.0,0.0,99999.0
7451983297008,837,7451983297008,local_origin,201617.766759,1908385.27449,-1.69,-0.0133563152223,-0.0273075338433,0.701838888982,0.711686785989,1.98809990587,0.0,0.0,0.0,0.0,0.0,0.0,1.98809990587,0.0,0.0,0.0,0.0,0.0,0.0,7.95239962349,0.0,0.0,0.0,0.0,0.0,0.0,99999.0,0.0,0.0,0.0,0.0,0.0,0.0,99999.0,0.0,0.0,0.0,0.0,0.0,0.0,99999.0
7452200297008,838,7452200297008,local_origin,201617.777239,1908385.26326,-1.68,-0.0134222089699,-0.0272116429155,0.701786002905,0.711741369405,1.98809990587,0.0,0.0,0.0,0.0,0.0,0.0,1.98809990587,0.0,0.0,0.0,0.0,0.0,0.0,7.95239962349,0.0,0.0,0.0,0.0,0.0,0.0,99999.0,0.0,0.0,0.0,0.0,0.0,0.0,99999.0,0.0,0.0,0.0,0.0,0.0,0.0,99999.0
7452394297008,839,7452394297008,local_origin,201617.787559,1908385.24096,-1.68,-0.0134477913166,-0.0271638180075,0.701740635606,0.711787443159,1.98809990587,0.0,0.0,0.0,0.0,0.0,0.0,1.98809990587,0.0,0.0,0.0,0.0,0.0,0.0,7.95239962349,0.0,0.0,0.0,0.0,0.0,0.0,99999.0,0.0,0.0,0.0,0.0,0.0,0.0,99999.0,0.0,0.0,0.0,0.0,0.0,0.0,99999.0
7452394297008,840,7452394297008,local_origin,201617.797878,1908385.21866,-1.68,-0.0132961094771,-0.0272904522319,0.701548630536,0.711974693148,1.98809990587,0.0,0.0,0.0,0.0,0.0,0.0,1.98809990587,0.0,0.0,0.0,0.0,0.0,0.0,7.95239962349,0.0,0.0,0.0,0.0,0.0,0.0,99999.0,0.0,0.0,0.0,0.0,0.0,0.0,99999.0,0.0,0.0,0.0,0.0,0.0,0.0,99999.0
7452589297008,841,7452589297008,local_origin,201617.819161,1908385.21835,-1.68,-0.0133694973708,-0.0270998420694,0.70170523888,0.711826251853,1.98809990587,0.0,0.0,0.0,0.0,0.0,0.0,1.98809990587,0.0,0.0,0.0,0.0,0.0,0.0,7.95239962349,0.0,0.0,0.0,0.0,0.0,0.0,99999.0,0.0,0.0,0.0,0.0,0.0,0.0,99999.0,0.0,0.0,0.0,0.0,0.0,0.0,99999.0
7452786297008,842,7452786297008,local_origin,201617.829641,1908385.20712,-1.68,-0.0134059504516,-0.0271261339829,0.701656836233,0.711872276125,2.37159988251,0.0,0.0,0.0,0.0,0.0,0.0,2.37159988251,0.0,0.0,0.0,0.0,0.0,0.0,9.48639953003,0.0,0.0,0.0,0.0,0.0,0.0,99999.0,0.0,0.0,0.0,0.0,0.0,0.0,99999.0,0.0,0.0,0.0,0.0,0.0,0.0,99999.0
7452786297008,843,7452786297008,local_origin,201617.850923,1908385.20681,-1.67,-0.0132734029391,-0.027279922952,0.701765848018,0.711761418689,2.37159988251,0.0,0.0,0.0,0.0,0.0,0.0,2.37159988251,0.0,0.0,0.0,0.0,0.0,0.0,9.48639953003,0.0,0.0,0.0,0.0,0.0,0.0,99999.0,0.0,0.0,0.0,0.0,0.0,0.0,99999.0,0.0,0.0,0.0,0.0,0.0,0.0,99999.0
7453002297008,844,7453002297008,local_origin,201617.872045,1908385.19543,-1.67,-0.0133988344894,-0.0271688273339,0.701794027097,0.711735533458,1.98809990587,0.0,0.0,0.0,0.0,0.0,0.0,1.98809990587,0.0,0.0,0.0,0.0,0.0,0.0,7.95239962349,0.0,0.0,0.0,0.0,0.0,0.0,99999.0,0.0,0.0,0.0,0.0,0.0,0.0,99999.0,0.0,0.0,0.0,0.0,0.0,0.0,99999.0
7453204297008,845,7453204297008,local_origin,201617.882686,1908385.19527,-1.67,-0.013370600327,-0.0272296442839,0.70176497847,0.711762382058,1.98809990587,0.0,0.0,0.0,0.0,0.0,0.0,1.98809990587,0.0,0.0,0.0,0.0,0.0,0.0,7.95239962349,0.0,0.0,0.0,0.0,0.0,0.0,99999.0,0.0,0.0,0.0,0.0,0.0,0.0,99999.0,0.0,0.0,0.0,0.0,0.0,0.0,99999.0
7453397297008,846,7453397297008,local_origin,201617.893488,1908385.20619,-1.67,-0.0132499620036,-0.0273065460499,0.701678376561,0.711847067084,1.98809990587,0.0,0.0,0.0,0.0,0.0,0.0,1.98809990587,0.0,0.0,0.0,0.0,0.0,0.0,7.95239962349,0.0,0.0,0.0,0.0,0.0,0.0,99999.0,0.0,0.0,0.0,0.0,0.0,0.0,99999.0,0.0,0.0,0.0,0.0,0.0,0.0,99999.0
7453397297008,847,7453397297008,local_origin,201617.904129,1908385.20604,-1.66,-0.0134719480787,-0.0272742790038,0.701482299972,0.71203736078,1.98809990587,0.0,0.0,0.0,0.0,0.0,0.0,1.98809990587,0.0,0.0,0.0,0.0,0.0,0.0,7.95239962349,0.0,0.0,0.0,0.0,0.0,0.0,99999.0,0.0,0.0,0.0,0.0,0.0,0.0,99999.0,0.0,0.0,0.0,0.0,0.0,0.0,99999.0
7453593297008,848,7453593297008,local_origin,201617.904129,1908385.20604,-1.66,-0.0133909619912,-0.0273338159495,0.701447299108,0.712071085789,1.98809990587,0.0,0.0,0.0,0.0,0.0,0.0,1.98809990587,0.0,0.0,0.0,0.0,0.0,0.0,7.95239962349,0.0,0.0,0.0,0.0,0.0,0.0,99999.0,0.0,0.0,0.0,0.0,0.0,0.0,99999.0,0.0,0.0,0.0,0.0,0.0,0.0,99999.0
7453788297008,849,7453788297008,local_origin,201617.90429,1908385.21711,-1.66,-0.0133496571201,-0.0273842118894,0.701402999678,0.712113560914,1.98809990587,0.0,0.0,0.0,0.0,0.0,0.0,1.98809990587,0.0,0.0,0.0,0.0,0.0,0.0,7.95239962349,0.0,0.0,0.0,0.0,0.0,0.0,99999.0,0.0,0.0,0.0,0.0,0.0,0.0,99999.0,0.0,0.0,0.0,0.0,0.0,0.0,99999.0
7453788297008,850,7453788297008,local_origin,201617.893649,1908385.21727,-1.65,-0.0135284767645,-0.027265749567,0.701645525193,0.711875773006,1.98809990587,0.0,0.0,0.0,0.0,0.0,0.0,1.98809990587,0.0,0.0,0.0,0.0,0.0,0.0,7.95239962349,0.0,0.0,0.0,0.0,0.0,0.0,99999.0,0.0,0.0,0.0,0.0,0.0,0.0,99999.0,0.0,0.0,0.0,0.0,0.0,0.0,99999.0
7454005297008,851,7454005297008,local_origin,201617.883008,1908385.21742,-1.65,-0.0134034270404,-0.0273365070161,0.701811523764,0.711711773571,1.98809990587,0.0,0.0,0.0,0.0,0.0,0.0,1.98809990587,0.0,0.0,0.0,0.0,0.0,0.0,7.95239962349,0.0,0.0,0.0,0.0,0.0,0.0,99999.0,0.0,0.0,0.0,0.0,0.0,0.0,99999.0,0.0,0.0,0.0,0.0,0.0,0.0,99999.0
7454199297008,852,7454199297008,local_origin,201617.872367,1908385.21758,-1.64,-0.0133545471023,-0.0274165885625,0.70197256135,0.711550778129,1.98809990587,0.0,0.0,0.0,0.0,0.0,0.0,1.98809990587,0.0,0.0,0.0,0.0,0.0,0.0,7.95239962349,0.0,0.0,0.0,0.0,0.0,0.0,99999.0,0.0,0.0,0.0,0.0,0.0,0.0,99999.0,0.0,0.0,0.0,0.0,0.0,0.0,99999.0
7454199297008,853,7454199297008,local_origin,201617.861565,1908385.20666,-1.63,-0.0134784073827,-0.0271916818471,0.70187803632,0.711650312375,1.98809990587,0.0,0.0,0.0,0.0,0.0,0.0,1.98809990587,0.0,0.0,0.0,0.0,0.0,0.0,7.95239962349,0.0,0.0,0.0,0.0,0.0,0.0,99999.0,0.0,0.0,0.0,0.0,0.0,0.0,99999.0,0.0,0.0,0.0,0.0,0.0,0.0,99999.0
7454396297008,854,7454396297008,local_origin,201617.850923,1908385.20681,-1.62,-0.0134390760476,-0.0272280154334,0.701719264211,0.711806224085,1.98809990587,0.0,0.0,0.0,0.0,0.0,0.0,1.98809990587,0.0,0.0,0.0,0.0,0.0,0.0,7.95239962349,0.0,0.0,0.0,0.0,0.0,0.0,99999.0,0.0,0.0,0.0,0.0,0.0,0.0,99999.0,0.0,0.0,0.0,0.0,0.0,0.0,99999.0
7454587297008,855,7454587297008,local_origin,201617.850762,1908385.19574,-1.62,-0.0135064783781,-0.0272227746528,0.701626171881,0.711896910032,2.37159988251,0.0,0.0,0.0,0.0,0.0,0.0,2.37159988251,0.0,0.0,0.0,0.0,0.0,0.0,9.48639953003,0.0,0.0,0.0,0.0,0.0,0.0,99999.0,0.0,0.0,0.0,0.0,0.0,0.0,99999.0,0.0,0.0,0.0,0.0,0.0,0.0,99999.0
7454587297008,856,7454587297008,local_origin,201617.840121,1908385.19589,-1.61,-0.0135552964257,-0.0271485360843,0.701515475656,0.712007899073,2.37159988251,0.0,0.0,0.0,0.0,0.0,0.0,2.37159988251,0.0,0.0,0.0,0.0,0.0,0.0,9.48639953003,0.0,0.0,0.0,0.0,0.0,0.0,99999.0,0.0,0.0,0.0,0.0,0.0,0.0,99999.0,0.0,0.0,0.0,0.0,0.0,0.0,99999.0
7454803297008,857,7454803297008,local_origin,201617.861243,1908385.18451,-1.6,-0.0134280467677,-0.0272788732485,0.701653098583,0.711869707098,1.58759997597,0.0,0.0,0.0,0.0,0.0,0.0,1.58759997597,0.0,0.0,0.0,0.0,0.0,0.0,6.35039990387,0.0,0.0,0.0,0.0,0.0,0.0,99999.0,0.0,0.0,0.0,0.0,0.0,0.0,99999.0,0.0,0.0,0.0,0.0,0.0,0.0,99999.0
7455003297008,858,7455003297008,local_origin,201617.892845,1908385.1619,-1.59,-0.0134074826418,-0.0273203963562,0.701795506942,0.711728109455,1.58759997597,0.0,0.0,0.0,0.0,0.0,0.0,1.58759997597,0.0,0.0,0.0,0.0,0.0,0.0,6.35039990387,0.0,0.0,0.0,0.0,0.0,0.0,99999.0,0.0,0.0,0.0,0.0,0.0,0.0,99999.0,0.0,0.0,0.0,0.0,0.0,0.0,99999.0
7455202297008,859,7455202297008,local_origin,201617.935088,1908385.13913,-1.57,-0.0134383328378,-0.0272829596892,0.701981007129,0.711546004803,1.58759997597,0.0,0.0,0.0,0.0,0.0,0.0,1.58759997597,0.0,0.0,0.0,0.0,0.0,0.0,6.35039990387,0.0,0.0,0.0,0.0,0.0,0.0,99999.0,0.0,0.0,0.0,0.0,0.0,0.0,99999.0,0.0,0.0,0.0,0.0,0.0,0.0,99999.0
7455202297008,860,7455202297008,local_origin,201617.96669,1908385.11652,-1.55,-0.0133633276228,-0.0273855233016,0.702109062607,0.711417120116,1.58759997597,0.0,0.0,0.0,0.0,0.0,0.0,1.58759997597,0.0,0.0,0.0,0.0,0.0,0.0,6.35039990387,0.0,0.0,0.0,0.0,0.0,0.0,99999.0,0.0,0.0,0.0,0.0,0.0,0.0,99999.0,0.0,0.0,0.0,0.0,0.0,0.0,99999.0
7455398297008,861,7455398297008,local_origin,201618.008772,1908385.08268,-1.54,-0.0135013664232,-0.0273558472854,0.7019595819,0.711563149764,1.58759997597,0.0,0.0,0.0,0.0,0.0,0.0,1.58759997597,0.0,0.0,0.0,0.0,0.0,0.0,6.35039990387,0.0,0.0,0.0,0.0,0.0,0.0,99999.0,0.0,0.0,0.0,0.0,0.0,0.0,99999.0,0.0,0.0,0.0,0.0,0.0,0.0,99999.0
7455595297008,862,7455595297008,local_origin,201618.040535,1908385.07114,-1.53,-0.0134769989815,-0.027303765273,0.701775976996,0.711746691605,1.58759997597,0.0,0.0,0.0,0.0,0.0,0.0,1.58759997597,0.0,0.0,0.0,0.0,0.0,0.0,6.35039990387,0.0,0.0,0.0,0.0,0.0,0.0,99999.0,0.0,0.0,0.0,0.0,0.0,0.0,99999.0,0.0,0.0,0.0,0.0,0.0,0.0,99999.0
7455595297008,863,7455595297008,local_origin,201618.082939,1908385.05945,-1.52,-0.0134506669059,-0.0273390788123,0.701645113257,0.711874841087,1.58759997597,0.0,0.0,0.0,0.0,0.0,0.0,1.58759997597,0.0,0.0,0.0,0.0,0.0,0.0,6.35039990387,0.0,0.0,0.0,0.0,0.0,0.0,99999.0,0.0,0.0,0.0,0.0,0.0,0.0,99999.0,0.0,0.0,0.0,0.0,0.0,0.0,99999.0
7455790297008,864,7455790297008,local_origin,201618.104221,1908385.05914,-1.51,-0.0136441911331,-0.027165774211,0.701515477854,0.712005541475,1.58759997597,0.0,0.0,0.0,0.0,0.0,0.0,1.58759997597,0.0,0.0,0.0,0.0,0.0,0.0,6.35039990387,0.0,0.0,0.0,0.0,0.0,0.0,99999.0,0.0,0.0,0.0,0.0,0.0,0.0,99999.0,0.0,0.0,0.0,0.0,0.0,0.0,99999.0
7456003297008,865,7456003297008,local_origin,201618.135984,1908385.0476,-1.5,-0.0135922729382,-0.0271350799422,0.70160827046,0.711916267812,1.58759997597,0.0,0.0,0.0,0.0,0.0,0.0,1.58759997597,0.0,0.0,0.0,0.0,0.0,0.0,6.35039990387,0.0,0.0,0.0,0.0,0.0,0.0,99999.0,0.0,0.0,0.0,0.0,0.0,0.0,99999.0,0.0,0.0,0.0,0.0,0.0,0.0,99999.0
7456003297008,866,7456003297008,local_origin,201618.146625,1908385.04745,-1.49,-0.0135672312348,-0.0272360087419,0.701638093395,0.711883498869,1.58759997597,0.0,0.0,0.0,0.0,0.0,0.0,1.58759997597,0.0,0.0,0.0,0.0,0.0,0.0,6.35039990387,0.0,0.0,0.0,0.0,0.0,0.0,99999.0,0.0,0.0,0.0,0.0,0.0,0.0,99999.0,0.0,0.0,0.0,0.0,0.0,0.0,99999.0
7456200297008,867,7456200297008,local_origin,201618.157266,1908385.0473,-1.49,-0.0137499436903,-0.0270493039125,0.701801001587,0.711726512347,1.58759997597,0.0,0.0,0.0,0.0,0.0,0.0,1.58759997597,0.0,0.0,0.0,0.0,0.0,0.0,6.35039990387,0.0,0.0,0.0,0.0,0.0,0.0,99999.0,0.0,0.0,0.0,0.0,0.0,0.0,99999.0,0.0,0.0,0.0,0.0,0.0,0.0,99999.0
7456397297008,868,7456397297008,local_origin,201618.167908,1908385.04714,-1.48,-0.0136745243987,-0.0270818932957,0.701940775381,0.711588874488,1.58759997597,0.0,0.0,0.0,0.0,0.0,0.0,1.58759997597,0.0,0.0,0.0,0.0,0.0,0.0,6.35039990387,0.0,0.0,0.0,0.0,0.0,0.0,99999.0,0.0,0.0,0.0,0.0,0.0,0.0,99999.0,0.0,0.0,0.0,0.0,0.0,0.0,99999.0
7456596297008,869,7456596297008,local_origin,201618.168068,1908385.05821,-1.48,-0.0135057593409,-0.0271480672546,0.70183026114,0.71169857486,1.58759997597,0.0,0.0,0.0,0.0,0.0,0.0,1.58759997597,0.0,0.0,0.0,0.0,0.0,0.0,6.35039990387,0.0,0.0,0.0,0.0,0.0,0.0,99999.0,0.0,0.0,0.0,0.0,0.0,0.0,99999.0,0.0,0.0,0.0,0.0,0.0,0.0,99999.0
7456596297008,870,7456596297008,local_origin,201618.168229,1908385.06929,-1.46,-0.0136212429768,-0.0270263540601,0.701744330513,0.711785734978,1.58759997597,0.0,0.0,0.0,0.0,0.0,0.0,1.58759997597,0.0,0.0,0.0,0.0,0.0,0.0,6.35039990387,0.0,0.0,0.0,0.0,0.0,0.0,99999.0,0.0,0.0,0.0,0.0,0.0,0.0,99999.0,0.0,0.0,0.0,0.0,0.0,0.0,99999.0
7456788297008,871,7456788297008,local_origin,201618.16839,1908385.08036,-1.46,-0.0135617218756,-0.0270954253945,0.701621649149,0.711905175615,1.58759997597,0.0,0.0,0.0,0.0,0.0,0.0,1.58759997597,0.0,0.0,0.0,0.0,0.0,0.0,6.35039990387,0.0,0.0,0.0,0.0,0.0,0.0,99999.0,0.0,0.0,0.0,0.0,0.0,0.0,99999.0,0.0,0.0,0.0,0.0,0.0,0.0,99999.0
7457003297008,872,7457003297008,local_origin,201618.15791,1908385.09159,-1.45,-0.0134173136905,-0.0272076075258,0.701508543399,0.712015087849,1.58759997597,0.0,0.0,0.0,0.0,0.0,0.0,1.58759997597,0.0,0.0,0.0,0.0,0.0,0.0,6.35039990387,0.0,0.0,0.0,0.0,0.0,0.0,99999.0,0.0,0.0,0.0,0.0,0.0,0.0,99999.0,0.0,0.0,0.0,0.0,0.0,0.0,99999.0
7457003297008,873,7457003297008,local_origin,201618.147269,1908385.09174,-1.44,-0.0134853213161,-0.0271183113878,0.701608973643,0.711918247695,1.58759997597,0.0,0.0,0.0,0.0,0.0,0.0,1.58759997597,0.0,0.0,0.0,0.0,0.0,0.0,6.35039990387,0.0,0.0,0.0,0.0,0.0,0.0,99999.0,0.0,0.0,0.0,0.0,0.0,0.0,99999.0,0.0,0.0,0.0,0.0,0.0,0.0,99999.0
7457197297008,874,7457197297008,local_origin,201618.136949,1908385.11405,-1.44,-0.0133714892499,-0.0271679601157,0.701575736381,0.711951256295,1.58759997597,0.0,0.0,0.0,0.0,0.0,0.0,1.58759997597,0.0,0.0,0.0,0.0,0.0,0.0,6.35039990387,0.0,0.0,0.0,0.0,0.0,0.0,99999.0,0.0,0.0,0.0,0.0,0.0,0.0,99999.0,0.0,0.0,0.0,0.0,0.0,0.0,99999.0
7457414297008,875,7457414297008,local_origin,201618.126469,1908385.12528,-1.42,-0.0133186999758,-0.0272777518959,0.701625259597,0.711899242575,1.58759997597,0.0,0.0,0.0,0.0,0.0,0.0,1.58759997597,0.0,0.0,0.0,0.0,0.0,0.0,6.35039990387,0.0,0.0,0.0,0.0,0.0,0.0,99999.0,0.0,0.0,0.0,0.0,0.0,0.0,99999.0,0.0,0.0,0.0,0.0,0.0,0.0,99999.0
7457414297008,876,7457414297008,local_origin,201618.11631,1908385.15865,-1.42,-0.0135101821995,-0.0271964603674,0.701537287909,0.711985436083,1.58759997597,0.0,0.0,0.0,0.0,0.0,0.0,1.58759997597,0.0,0.0,0.0,0.0,0.0,0.0,6.35039990387,0.0,0.0,0.0,0.0,0.0,0.0,99999.0,0.0,0.0,0.0,0.0,0.0,0.0,99999.0,0.0,0.0,0.0,0.0,0.0,0.0,99999.0
7457608297008,877,7457608297008,local_origin,201618.105991,1908385.18095,-1.41,-0.0133297791437,-0.0272660487234,0.701439614361,0.712082401819,1.58759997597,0.0,0.0,0.0,0.0,0.0,0.0,1.58759997597,0.0,0.0,0.0,0.0,0.0,0.0,6.35039990387,0.0,0.0,0.0,0.0,0.0,0.0,99999.0,0.0,0.0,0.0,0.0,0.0,0.0,99999.0,0.0,0.0,0.0,0.0,0.0,0.0,99999.0
7457803297008,878,7457803297008,local_origin,201618.095832,1908385.21433,-1.4,-0.013253041038,-0.0273269283971,0.70126271916,0.712255708719,1.58759997597,0.0,0.0,0.0,0.0,0.0,0.0,1.58759997597,0.0,0.0,0.0,0.0,0.0,0.0,6.35039990387,0.0,0.0,0.0,0.0,0.0,0.0,99999.0,0.0,0.0,0.0,0.0,0.0,0.0,99999.0,0.0,0.0,0.0,0.0,0.0,0.0,99999.0
7457803297008,879,7457803297008,local_origin,201618.085513,1908385.23663,-1.39,-0.0133425759287,-0.027248613984,0.701097356539,0.712419809773,1.58759997597,0.0,0.0,0.0,0.0,0.0,0.0,1.58759997597,0.0,0.0,0.0,0.0,0.0,0.0,6.35039990387,0.0,0.0,0.0,0.0,0.0,0.0,99999.0,0.0,0.0,0.0,0.0,0.0,0.0,99999.0,0.0,0.0,0.0,0.0,0.0,0.0,99999.0
7458003297008,880,7458003297008,local_origin,201618.086156,1908385.28093,-1.39,-0.0133065567154,-0.0272600621227,0.701112174123,0.712405463103,1.58759997597,0.0,0.0,0.0,0.0,0.0,0.0,1.58759997597,0.0,0.0,0.0,0.0,0.0,0.0,6.35039990387,0.0,0.0,0.0,0.0,0.0,0.0,99999.0,0.0,0.0,0.0,0.0,0.0,0.0,99999.0,0.0,0.0,0.0,0.0,0.0,0.0,99999.0
7458201297008,881,7458201297008,local_origin,201618.086639,1908385.31415,-1.39,-0.0134223446604,-0.0272145107482,0.701139711593,0.712377930523,1.58759997597,0.0,0.0,0.0,0.0,0.0,0.0,1.58759997597,0.0,0.0,0.0,0.0,0.0,0.0,6.35039990387,0.0,0.0,0.0,0.0,0.0,0.0,99999.0,0.0,0.0,0.0,0.0,0.0,0.0,99999.0,0.0,0.0,0.0,0.0,0.0,0.0,99999.0
7458395297008,882,7458395297008,local_origin,201618.087121,1908385.34737,-1.39,-0.0134706456347,-0.0271651853534,0.701296220257,0.712224828172,1.58759997597,0.0,0.0,0.0,0.0,0.0,0.0,1.58759997597,0.0,0.0,0.0,0.0,0.0,0.0,6.35039990387,0.0,0.0,0.0,0.0,0.0,0.0,99999.0,0.0,0.0,0.0,0.0,0.0,0.0,99999.0,0.0,0.0,0.0,0.0,0.0,0.0,99999.0
7458395297008,883,7458395297008,local_origin,201618.087765,1908385.39166,-1.38,-0.0134395404033,-0.0272737291364,0.701396655703,0.712122358743,1.58759997597,0.0,0.0,0.0,0.0,0.0,0.0,1.58759997597,0.0,0.0,0.0,0.0,0.0,0.0,6.35039990387,0.0,0.0,0.0,0.0,0.0,0.0,99999.0,0.0,0.0,0.0,0.0,0.0,0.0,99999.0,0.0,0.0,0.0,0.0,0.0,0.0,99999.0
7458596297008,884,7458596297008,local_origin,201618.098888,1908385.42473,-1.38,-0.0134717378234,-0.02735735546,0.701434990142,0.712080783329,1.58759997597,0.0,0.0,0.0,0.0,0.0,0.0,1.58759997597,0.0,0.0,0.0,0.0,0.0,0.0,6.35039990387,0.0,0.0,0.0,0.0,0.0,0.0,99999.0,0.0,0.0,0.0,0.0,0.0,0.0,99999.0,0.0,0.0,0.0,0.0,0.0,0.0,99999.0
7458794297008,885,7458794297008,local_origin,201618.099532,1908385.46903,-1.37,-0.0134512180035,-0.0273642798153,0.701304953538,0.712208974296,1.58759997597,0.0,0.0,0.0,0.0,0.0,0.0,1.58759997597,0.0,0.0,0.0,0.0,0.0,0.0,6.35039990387,0.0,0.0,0.0,0.0,0.0,0.0,99999.0,0.0,0.0,0.0,0.0,0.0,0.0,99999.0,0.0,0.0,0.0,0.0,0.0,0.0,99999.0
7458794297008,886,7458794297008,local_origin,201618.110495,1908385.49102,-1.37,-0.0133092164189,-0.0275946658471,0.701169673239,0.712335937957,1.58759997597,0.0,0.0,0.0,0.0,0.0,0.0,1.58759997597,0.0,0.0,0.0,0.0,0.0,0.0,6.35039990387,0.0,0.0,0.0,0.0,0.0,0.0,99999.0,0.0,0.0,0.0,0.0,0.0,0.0,99999.0,0.0,0.0,0.0,0.0,0.0,0.0,99999.0
7458990297008,887,7458990297008,local_origin,201618.121619,1908385.52409,-1.36,-0.0134306511441,-0.0275193715105,0.701118382979,0.712387054101,1.58759997597,0.0,0.0,0.0,0.0,0.0,0.0,1.58759997597,0.0,0.0,0.0,0.0,0.0,0.0,6.35039990387,0.0,0.0,0.0,0.0,0.0,0.0,99999.0,0.0,0.0,0.0,0.0,0.0,0.0,99999.0,0.0,0.0,0.0,0.0,0.0,0.0,99999.0
7459207297008,888,7459207297008,local_origin,201618.132743,1908385.55715,-1.36,-0.0134696491646,-0.0274787941371,0.701020904903,0.712483807053,1.58759997597,0.0,0.0,0.0,0.0,0.0,0.0,1.58759997597,0.0,0.0,0.0,0.0,0.0,0.0,6.35039990387,0.0,0.0,0.0,0.0,0.0,0.0,99999.0,0.0,0.0,0.0,0.0,0.0,0.0,99999.0,0.0,0.0,0.0,0.0,0.0,0.0,99999.0
7459207297008,889,7459207297008,local_origin,201618.143866,1908385.59022,-1.35,-0.0133907445888,-0.0276284640226,0.701151083943,0.71235139743,1.58759997597,0.0,0.0,0.0,0.0,0.0,0.0,1.58759997597,0.0,0.0,0.0,0.0,0.0,0.0,6.35039990387,0.0,0.0,0.0,0.0,0.0,0.0,99999.0,0.0,0.0,0.0,0.0,0.0,0.0,99999.0,0.0,0.0,0.0,0.0,0.0,0.0,99999.0
7459404297008,890,7459404297008,local_origin,201618.15499,1908385.62329,-1.35,-0.0134006334444,-0.0275218449866,0.701260329759,0.712247794646,1.58759997597,0.0,0.0,0.0,0.0,0.0,0.0,1.58759997597,0.0,0.0,0.0,0.0,0.0,0.0,6.35039990387,0.0,0.0,0.0,0.0,0.0,0.0,99999.0,0.0,0.0,0.0,0.0,0.0,0.0,99999.0,0.0,0.0,0.0,0.0,0.0,0.0,99999.0
7459595297008,891,7459595297008,local_origin,201618.155473,1908385.65651,-1.34,-0.0134480057676,-0.0275624190026,0.701411153081,0.712096804187,1.58759997597,0.0,0.0,0.0,0.0,0.0,0.0,1.58759997597,0.0,0.0,0.0,0.0,0.0,0.0,6.35039990387,0.0,0.0,0.0,0.0,0.0,0.0,99999.0,0.0,0.0,0.0,0.0,0.0,0.0,99999.0,0.0,0.0,0.0,0.0,0.0,0.0,99999.0
7459595297008,892,7459595297008,local_origin,201618.155955,1908385.68973,-1.34,-0.0134175683177,-0.0276114815504,0.701414120004,0.712092555224,1.58759997597,0.0,0.0,0.0,0.0,0.0,0.0,1.58759997597,0.0,0.0,0.0,0.0,0.0,0.0,6.35039990387,0.0,0.0,0.0,0.0,0.0,0.0,99999.0,0.0,0.0,0.0,0.0,0.0,0.0,99999.0,0.0,0.0,0.0,0.0,0.0,0.0,99999.0
7459792297008,893,7459792297008,local_origin,201618.156599,1908385.73402,-1.34,-0.0133955353173,-0.0276069949214,0.701310822455,0.712194877665,1.58759997597,0.0,0.0,0.0,0.0,0.0,0.0,1.58759997597,0.0,0.0,0.0,0.0,0.0,0.0,6.35039990387,0.0,0.0,0.0,0.0,0.0,0.0,99999.0,0.0,0.0,0.0,0.0,0.0,0.0,99999.0,0.0,0.0,0.0,0.0,0.0,0.0,99999.0
7460009297008,894,7460009297008,local_origin,201618.157081,1908385.76725,-1.34,-0.013488090385,-0.0275639116856,0.701164901562,0.712338460992,1.58759997597,0.0,0.0,0.0,0.0,0.0,0.0,1.58759997597,0.0,0.0,0.0,0.0,0.0,0.0,6.35039990387,0.0,0.0,0.0,0.0,0.0,0.0,99999.0,0.0,0.0,0.0,0.0,0.0,0.0,99999.0,0.0,0.0,0.0,0.0,0.0,0.0,99999.0
7460206297008,895,7460206297008,local_origin,201618.168205,1908385.80031,-1.33,-0.0134228306795,-0.0275401733101,0.701040909969,0.712462636929,1.58759997597,0.0,0.0,0.0,0.0,0.0,0.0,1.58759997597,0.0,0.0,0.0,0.0,0.0,0.0,6.35039990387,0.0,0.0,0.0,0.0,0.0,0.0,99999.0,0.0,0.0,0.0,0.0,0.0,0.0,99999.0,0.0,0.0,0.0,0.0,0.0,0.0,99999.0
7460206297008,896,7460206297008,local_origin,201618.179329,1908385.83338,-1.32,-0.0135040775686,-0.0274451093748,0.701043547511,0.712462174683,1.58759997597,0.0,0.0,0.0,0.0,0.0,0.0,1.58759997597,0.0,0.0,0.0,0.0,0.0,0.0,6.35039990387,0.0,0.0,0.0,0.0,0.0,0.0,99999.0,0.0,0.0,0.0,0.0,0.0,0.0,99999.0,0.0,0.0,0.0,0.0,0.0,0.0,99999.0
7460399297008,897,7460399297008,local_origin,201618.190453,1908385.86645,-1.32,-0.0134533169342,-0.0274611030941,0.70120325571,0.712305334995,1.58759997597,0.0,0.0,0.0,0.0,0.0,0.0,1.58759997597,0.0,0.0,0.0,0.0,0.0,0.0,6.35039990387,0.0,0.0,0.0,0.0,0.0,0.0,99999.0,0.0,0.0,0.0,0.0,0.0,0.0,99999.0,0.0,0.0,0.0,0.0,0.0,0.0,99999.0
7460598297008,898,7460598297008,local_origin,201618.201416,1908385.88844,-1.32,-0.0134287122537,-0.0275363875048,0.701290089992,0.712217401311,1.58759997597,0.0,0.0,0.0,0.0,0.0,0.0,1.58759997597,0.0,0.0,0.0,0.0,0.0,0.0,6.35039990387,0.0,0.0,0.0,0.0,0.0,0.0,99999.0,0.0,0.0,0.0,0.0,0.0,0.0,99999.0,0.0,0.0,0.0,0.0,0.0,0.0,99999.0
7460598297008,899,7460598297008,local_origin,201618.201577,1908385.89951,-1.32,-0.0135623937775,-0.0274564941292,0.701347056048,0.712161856166,1.58759997597,0.0,0.0,0.0,0.0,0.0,0.0,1.58759997597,0.0,0.0,0.0,0.0,0.0,0.0,6.35039990387,0.0,0.0,0.0,0.0,0.0,0.0,99999.0,0.0,0.0,0.0,0.0,0.0,0.0,99999.0,0.0,0.0,0.0,0.0,0.0,0.0,99999.0
7460792297008,900,7460792297008,local_origin,201618.21254,1908385.92151,-1.32,-0.0134383101156,-0.0275505896968,0.7012598795,0.712246416791,1.58759997597,0.0,0.0,0.0,0.0,0.0,0.0,1.58759997597,0.0,0.0,0.0,0.0,0.0,0.0,6.35039990387,0.0,0.0,0.0,0.0,0.0,0.0,99999.0,0.0,0.0,0.0,0.0,0.0,0.0,99999.0,0.0,0.0,0.0,0.0,0.0,0.0,99999.0
7461011297008,901,7461011297008,local_origin,201618.212861,1908385.94365,-1.31,-0.013523160848,-0.0275369151186,0.701127158317,0.712375989416,1.58759997597,0.0,0.0,0.0,0.0,0.0,0.0,1.58759997597,0.0,0.0,0.0,0.0,0.0,0.0,6.35039990387,0.0,0.0,0.0,0.0,0.0,0.0,99999.0,0.0,0.0,0.0,0.0,0.0,0.0,99999.0,0.0,0.0,0.0,0.0,0.0,0.0,99999.0
7461011297008,902,7461011297008,local_origin,201618.213183,1908385.9658,-1.31,-0.0135903537551,-0.0275278130867,0.701007028302,0.712493275801,1.58759997597,0.0,0.0,0.0,0.0,0.0,0.0,1.58759997597,0.0,0.0,0.0,0.0,0.0,0.0,6.35039990387,0.0,0.0,0.0,0.0,0.0,0.0,99999.0,0.0,0.0,0.0,0.0,0.0,0.0,99999.0,0.0,0.0,0.0,0.0,0.0,0.0,99999.0
7461211297008,903,7461211297008,local_origin,201618.224307,1908385.99887,-1.31,-0.0135097988298,-0.0275307277291,0.700967401725,0.712533680667,1.58759997597,0.0,0.0,0.0,0.0,0.0,0.0,1.58759997597,0.0,0.0,0.0,0.0,0.0,0.0,6.35039990387,0.0,0.0,0.0,0.0,0.0,0.0,99999.0,0.0,0.0,0.0,0.0,0.0,0.0,99999.0,0.0,0.0,0.0,0.0,0.0,0.0,99999.0
7461405297008,904,7461405297008,local_origin,201618.22495,1908386.04316,-1.31,-0.0134995864463,-0.0275070396751,0.701071175821,0.712432684797,1.58759997597,0.0,0.0,0.0,0.0,0.0,0.0,1.58759997597,0.0,0.0,0.0,0.0,0.0,0.0,6.35039990387,0.0,0.0,0.0,0.0,0.0,0.0,99999.0,0.0,0.0,0.0,0.0,0.0,0.0,99999.0,0.0,0.0,0.0,0.0,0.0,0.0,99999.0
7461405297008,905,7461405297008,local_origin,201618.225594,1908386.08746,-1.3,-0.01345654441,-0.0274434519441,0.701209509385,0.712299798053,1.58759997597,0.0,0.0,0.0,0.0,0.0,0.0,1.58759997597,0.0,0.0,0.0,0.0,0.0,0.0,6.35039990387,0.0,0.0,0.0,0.0,0.0,0.0,99999.0,0.0,0.0,0.0,0.0,0.0,0.0,99999.0,0.0,0.0,0.0,0.0,0.0,0.0,99999.0
7461601297008,906,7461601297008,local_origin,201618.215757,1908386.14298,-1.29,-0.0133469624382,-0.0274764168858,0.701303575646,0.712207975169,1.58759997597,0.0,0.0,0.0,0.0,0.0,0.0,1.58759997597,0.0,0.0,0.0,0.0,0.0,0.0,6.35039990387,0.0,0.0,0.0,0.0,0.0,0.0,99999.0,0.0,0.0,0.0,0.0,0.0,0.0,99999.0,0.0,0.0,0.0,0.0,0.0,0.0,99999.0
7461794297008,907,7461794297008,local_origin,201618.2164,1908386.18728,-1.3,-0.0134264387243,-0.02742067713,0.701363806929,0.712149315481,1.58759997597,0.0,0.0,0.0,0.0,0.0,0.0,1.58759997597,0.0,0.0,0.0,0.0,0.0,0.0,6.35039990387,0.0,0.0,0.0,0.0,0.0,0.0,99999.0,0.0,0.0,0.0,0.0,0.0,0.0,99999.0,0.0,0.0,0.0,0.0,0.0,0.0,99999.0
7461990297008,908,7461990297008,local_origin,201618.206242,1908386.22065,-1.29,-0.0133631713672,-0.0274731228315,0.701277150173,0.712233818221,1.58759997597,0.0,0.0,0.0,0.0,0.0,0.0,1.58759997597,0.0,0.0,0.0,0.0,0.0,0.0,6.35039990387,0.0,0.0,0.0,0.0,0.0,0.0,99999.0,0.0,0.0,0.0,0.0,0.0,0.0,99999.0,0.0,0.0,0.0,0.0,0.0,0.0,99999.0
7461990297008,909,7461990297008,local_origin,201618.185603,1908386.26526,-1.29,-0.0132874557889,-0.027501984263,0.701096818595,0.712411633352,1.58759997597,0.0,0.0,0.0,0.0,0.0,0.0,1.58759997597,0.0,0.0,0.0,0.0,0.0,0.0,6.35039990387,0.0,0.0,0.0,0.0,0.0,0.0,99999.0,0.0,0.0,0.0,0.0,0.0,0.0,99999.0,0.0,0.0,0.0,0.0,0.0,0.0,99999.0
7462209297008,910,7462209297008,local_origin,201618.165125,1908386.32093,-1.29,-0.0134437470216,-0.0272759179582,0.70092870938,0.712582791213,1.58759997597,0.0,0.0,0.0,0.0,0.0,0.0,1.58759997597,0.0,0.0,0.0,0.0,0.0,0.0,6.35039990387,0.0,0.0,0.0,0.0,0.0,0.0,99999.0,0.0,0.0,0.0,0.0,0.0,0.0,99999.0,0.0,0.0,0.0,0.0,0.0,0.0,99999.0
7462405297008,911,7462405297008,local_origin,201618.144647,1908386.37661,-1.3,-0.0134066952391,-0.0273048497372,0.700847936643,0.712661824014,1.58759997597,0.0,0.0,0.0,0.0,0.0,0.0,1.58759997597,0.0,0.0,0.0,0.0,0.0,0.0,6.35039990387,0.0,0.0,0.0,0.0,0.0,0.0,99999.0,0.0,0.0,0.0,0.0,0.0,0.0,99999.0,0.0,0.0,0.0,0.0,0.0,0.0,99999.0
7462405297008,912,7462405297008,local_origin,201618.124168,1908386.43229,-1.31,-0.0134506743982,-0.0272877590688,0.700927484237,0.712583412244,1.58759997597,0.0,0.0,0.0,0.0,0.0,0.0,1.58759997597,0.0,0.0,0.0,0.0,0.0,0.0,6.35039990387,0.0,0.0,0.0,0.0,0.0,0.0,99999.0,0.0,0.0,0.0,0.0,0.0,0.0,99999.0,0.0,0.0,0.0,0.0,0.0,0.0,99999.0
7462599297008,913,7462599297008,local_origin,201618.103529,1908386.47689,-1.31,-0.0134816734061,-0.0272134763529,0.701004691047,0.712509715244,1.58759997597,0.0,0.0,0.0,0.0,0.0,0.0,1.58759997597,0.0,0.0,0.0,0.0,0.0,0.0,6.35039990387,0.0,0.0,0.0,0.0,0.0,0.0,99999.0,0.0,0.0,0.0,0.0,0.0,0.0,99999.0,0.0,0.0,0.0,0.0,0.0,0.0,99999.0
7462794297008,914,7462794297008,local_origin,201618.083051,1908386.53257,-1.3,-0.0134483447718,-0.0271657588836,0.701127313304,0.712391503392,1.58759997597,0.0,0.0,0.0,0.0,0.0,0.0,1.58759997597,0.0,0.0,0.0,0.0,0.0,0.0,6.35039990387,0.0,0.0,0.0,0.0,0.0,0.0,99999.0,0.0,0.0,0.0,0.0,0.0,0.0,99999.0,0.0,0.0,0.0,0.0,0.0,0.0,99999.0
7462794297008,915,7462794297008,local_origin,201618.073054,1908386.57702,-1.29,-0.0135277294215,-0.0271902269507,0.701213673673,0.712304061444,1.58759997597,0.0,0.0,0.0,0.0,0.0,0.0,1.58759997597,0.0,0.0,0.0,0.0,0.0,0.0,6.35039990387,0.0,0.0,0.0,0.0,0.0,0.0,99999.0,0.0,0.0,0.0,0.0,0.0,0.0,99999.0,0.0,0.0,0.0,0.0,0.0,0.0,99999.0
7462991297008,916,7462991297008,local_origin,201618.052254,1908386.61055,-1.29,-0.0135845046716,-0.0270743201965,0.70112707616,0.712392634363,1.58759997597,0.0,0.0,0.0,0.0,0.0,0.0,1.58759997597,0.0,0.0,0.0,0.0,0.0,0.0,6.35039990387,0.0,0.0,0.0,0.0,0.0,0.0,99999.0,0.0,0.0,0.0,0.0,0.0,0.0,99999.0,0.0,0.0,0.0,0.0,0.0,0.0,99999.0
7463211297008,917,7463211297008,local_origin,201618.041934,1908386.63286,-1.28,-0.0136210801908,-0.0270782409566,0.700993522497,0.712523204155,1.58759997597,0.0,0.0,0.0,0.0,0.0,0.0,1.58759997597,0.0,0.0,0.0,0.0,0.0,0.0,6.35039990387,0.0,0.0,0.0,0.0,0.0,0.0,99999.0,0.0,0.0,0.0,0.0,0.0,0.0,99999.0,0.0,0.0,0.0,0.0,0.0,0.0,99999.0
7463211297008,918,7463211297008,local_origin,201618.020974,1908386.65531,-1.28,-0.0135918340317,-0.0270914576327,0.700839999887,0.712674266078,1.58759997597,0.0,0.0,0.0,0.0,0.0,0.0,1.58759997597,0.0,0.0,0.0,0.0,0.0,0.0,6.35039990387,0.0,0.0,0.0,0.0,0.0,0.0,99999.0,0.0,0.0,0.0,0.0,0.0,0.0,99999.0,0.0,0.0,0.0,0.0,0.0,0.0,99999.0
7463404297008,919,7463404297008,local_origin,201617.999852,1908386.66669,-1.28,-0.0135493729977,-0.0271874985396,0.700776532005,0.712733825916,1.58759997597,0.0,0.0,0.0,0.0,0.0,0.0,1.58759997597,0.0,0.0,0.0,0.0,0.0,0.0,6.35039990387,0.0,0.0,0.0,0.0,0.0,0.0,99999.0,0.0,0.0,0.0,0.0,0.0,0.0,99999.0,0.0,0.0,0.0,0.0,0.0,0.0,99999.0
7463602297008,920,7463602297008,local_origin,201617.978891,1908386.68915,-1.28,-0.0135573676852,-0.0272366886334,0.700921709623,0.7125890243,1.79560008945,0.0,0.0,0.0,0.0,0.0,0.0,1.79560008945,0.0,0.0,0.0,0.0,0.0,0.0,7.18240035782,0.0,0.0,0.0,0.0,0.0,0.0,99999.0,0.0,0.0,0.0,0.0,0.0,0.0,99999.0,0.0,0.0,0.0,0.0,0.0,0.0,99999.0
7463798297008,921,7463798297008,local_origin,201617.947129,1908386.70069,-1.27,-0.01358903658,-0.0272117660681,0.701078133948,0.712435476357,1.79560008945,0.0,0.0,0.0,0.0,0.0,0.0,1.79560008945,0.0,0.0,0.0,0.0,0.0,0.0,7.18240035782,0.0,0.0,0.0,0.0,0.0,0.0,99999.0,0.0,0.0,0.0,0.0,0.0,0.0,99999.0,0.0,0.0,0.0,0.0,0.0,0.0,99999.0
7463798297008,922,7463798297008,local_origin,201617.936809,1908386.72299,-1.27,-0.0135475782248,-0.0272159143737,0.701221940316,0.712294565155,1.93209996023,0.0,0.0,0.0,0.0,0.0,0.0,1.93209996023,0.0,0.0,0.0,0.0,0.0,0.0,7.72839984093,0.0,0.0,0.0,0.0,0.0,0.0,99999.0,0.0,0.0,0.0,0.0,0.0,0.0,99999.0,0.0,0.0,0.0,0.0,0.0,0.0,99999.0
7463994297008,923,7463994297008,local_origin,201617.916009,1908386.75652,-1.27,-0.0135377327387,-0.0272623439523,0.701261101666,0.712254422018,1.93209996023,0.0,0.0,0.0,0.0,0.0,0.0,1.93209996023,0.0,0.0,0.0,0.0,0.0,0.0,7.72839984093,0.0,0.0,0.0,0.0,0.0,0.0,99999.0,0.0,0.0,0.0,0.0,0.0,0.0,99999.0,0.0,0.0,0.0,0.0,0.0,0.0,99999.0
7464191297008,924,7464191297008,local_origin,201617.89521,1908386.79005,-1.27,-0.0134842122647,-0.0272245168533,0.701201987934,0.712315080438,1.93209996023,0.0,0.0,0.0,0.0,0.0,0.0,1.93209996023,0.0,0.0,0.0,0.0,0.0,0.0,7.72839984093,0.0,0.0,0.0,0.0,0.0,0.0,99999.0,0.0,0.0,0.0,0.0,0.0,0.0,99999.0,0.0,0.0,0.0,0.0,0.0,0.0,99999.0
7464191297008,925,7464191297008,local_origin,201617.863929,1908386.83481,-1.27,-0.0135293164994,-0.0271991990431,0.701071192068,0.712443923982,1.79560008945,0.0,0.0,0.0,0.0,0.0,0.0,1.79560008945,0.0,0.0,0.0,0.0,0.0,0.0,7.18240035782,0.0,0.0,0.0,0.0,0.0,0.0,99999.0,0.0,0.0,0.0,0.0,0.0,0.0,99999.0,0.0,0.0,0.0,0.0,0.0,0.0,99999.0
7464405297008,926,7464405297008,local_origin,201617.843451,1908386.89049,-1.27,-0.013525465905,-0.0272008611642,0.700927180614,0.712585617593,1.58759997597,0.0,0.0,0.0,0.0,0.0,0.0,1.58759997597,0.0,0.0,0.0,0.0,0.0,0.0,6.35039990387,0.0,0.0,0.0,0.0,0.0,0.0,99999.0,0.0,0.0,0.0,0.0,0.0,0.0,99999.0,0.0,0.0,0.0,0.0,0.0,0.0,99999.0
7464599297008,927,7464599297008,local_origin,201617.822812,1908386.93509,-1.26,-0.0134975893991,-0.0273063667994,0.700889350466,0.712619320406,1.58759997597,0.0,0.0,0.0,0.0,0.0,0.0,1.58759997597,0.0,0.0,0.0,0.0,0.0,0.0,6.35039990387,0.0,0.0,0.0,0.0,0.0,0.0,99999.0,0.0,0.0,0.0,0.0,0.0,0.0,99999.0,0.0,0.0,0.0,0.0,0.0,0.0,99999.0
7464599297008,928,7464599297008,local_origin,201617.812815,1908386.97954,-1.26,-0.013548924893,-0.0273520369063,0.700993657332,0.712513989401,1.58759997597,0.0,0.0,0.0,0.0,0.0,0.0,1.58759997597,0.0,0.0,0.0,0.0,0.0,0.0,6.35039990387,0.0,0.0,0.0,0.0,0.0,0.0,99999.0,0.0,0.0,0.0,0.0,0.0,0.0,99999.0,0.0,0.0,0.0,0.0,0.0,0.0,99999.0
7464795297008,929,7464795297008,local_origin,201617.813458,1908387.02384,-1.26,-0.0135032609058,-0.0274095543535,0.701064056464,0.712443378107,1.79560008945,0.0,0.0,0.0,0.0,0.0,0.0,1.79560008945,0.0,0.0,0.0,0.0,0.0,0.0,7.18240035782,0.0,0.0,0.0,0.0,0.0,0.0,99999.0,0.0,0.0,0.0,0.0,0.0,0.0,99999.0,0.0,0.0,0.0,0.0,0.0,0.0,99999.0
7464989297008,930,7464989297008,local_origin,201617.80346,1908387.06829,-1.25,-0.0135059506667,-0.0274829535292,0.701226910042,0.712280209745,1.79560008945,0.0,0.0,0.0,0.0,0.0,0.0,1.79560008945,0.0,0.0,0.0,0.0,0.0,0.0,7.18240035782,0.0,0.0,0.0,0.0,0.0,0.0,99999.0,0.0,0.0,0.0,0.0,0.0,0.0,99999.0,0.0,0.0,0.0,0.0,0.0,0.0,99999.0
7464989297008,931,7464989297008,local_origin,201617.78266,1908387.10182,-1.25,-0.0134749973603,-0.0274245675448,0.701208118095,0.712301546158,1.79560008945,0.0,0.0,0.0,0.0,0.0,0.0,1.79560008945,0.0,0.0,0.0,0.0,0.0,0.0,7.18240035782,0.0,0.0,0.0,0.0,0.0,0.0,99999.0,0.0,0.0,0.0,0.0,0.0,0.0,99999.0,0.0,0.0,0.0,0.0,0.0,0.0,99999.0
7465207297008,932,7465207297008,local_origin,201617.772663,1908387.14627,-1.24,-0.0134196348421,-0.0274365306043,0.701083841387,0.712424450405,1.79560008945,0.0,0.0,0.0,0.0,0.0,0.0,1.79560008945,0.0,0.0,0.0,0.0,0.0,0.0,7.18240035782,0.0,0.0,0.0,0.0,0.0,0.0,99999.0,0.0,0.0,0.0,0.0,0.0,0.0,99999.0,0.0,0.0,0.0,0.0,0.0,0.0,99999.0
7465401297008,933,7465401297008,local_origin,201617.762504,1908387.17964,-1.24,-0.0134051602911,-0.0274942706432,0.700933864015,0.71257005623,1.58759997597,0.0,0.0,0.0,0.0,0.0,0.0,1.58759997597,0.0,0.0,0.0,0.0,0.0,0.0,6.35039990387,0.0,0.0,0.0,0.0,0.0,0.0,99999.0,0.0,0.0,0.0,0.0,0.0,0.0,99999.0,0.0,0.0,0.0,0.0,0.0,0.0,99999.0
7465596297008,934,7465596297008,local_origin,201617.752345,1908387.21302,-1.23,-0.0134442633634,-0.0274115255948,0.700807863131,0.712696428377,1.58759997597,0.0,0.0,0.0,0.0,0.0,0.0,1.58759997597,0.0,0.0,0.0,0.0,0.0,0.0,6.35039990387,0.0,0.0,0.0,0.0,0.0,0.0,99999.0,0.0,0.0,0.0,0.0,0.0,0.0,99999.0,0.0,0.0,0.0,0.0,0.0,0.0,99999.0
7465596297008,935,7465596297008,local_origin,201617.731385,1908387.23548,-1.23,-0.0134687976025,-0.02736032729,0.700812571974,0.712693302161,1.58759997597,0.0,0.0,0.0,0.0,0.0,0.0,1.58759997597,0.0,0.0,0.0,0.0,0.0,0.0,6.35039990387,0.0,0.0,0.0,0.0,0.0,0.0,99999.0,0.0,0.0,0.0,0.0,0.0,0.0,99999.0,0.0,0.0,0.0,0.0,0.0,0.0,99999.0
7465809297008,936,7465809297008,local_origin,201617.721226,1908387.26885,-1.23,-0.0135846244397,-0.0272924925875,0.700883881268,0.712623577218,1.58759997597,0.0,0.0,0.0,0.0,0.0,0.0,1.58759997597,0.0,0.0,0.0,0.0,0.0,0.0,6.35039990387,0.0,0.0,0.0,0.0,0.0,0.0,99999.0,0.0,0.0,0.0,0.0,0.0,0.0,99999.0,0.0,0.0,0.0,0.0,0.0,0.0,99999.0
7466002297008,937,7466002297008,local_origin,201617.710907,1908387.29115,-1.22,-0.0135498834085,-0.0272448466216,0.701037593412,0.712474849813,1.58759997597,0.0,0.0,0.0,0.0,0.0,0.0,1.58759997597,0.0,0.0,0.0,0.0,0.0,0.0,6.35039990387,0.0,0.0,0.0,0.0,0.0,0.0,99999.0,0.0,0.0,0.0,0.0,0.0,0.0,99999.0,0.0,0.0,0.0,0.0,0.0,0.0,99999.0
7466002297008,938,7466002297008,local_origin,201617.711389,1908387.32438,-1.21,-0.0136317545387,-0.0271547803585,0.701131235983,0.712384575282,1.58759997597,0.0,0.0,0.0,0.0,0.0,0.0,1.58759997597,0.0,0.0,0.0,0.0,0.0,0.0,6.35039990387,0.0,0.0,0.0,0.0,0.0,0.0,99999.0,0.0,0.0,0.0,0.0,0.0,0.0,99999.0,0.0,0.0,0.0,0.0,0.0,0.0,99999.0
7466197297008,939,7466197297008,local_origin,201617.701231,1908387.35775,-1.21,-0.0136228502769,-0.0271586887628,0.701171835723,0.712344635948,1.58759997597,0.0,0.0,0.0,0.0,0.0,0.0,1.58759997597,0.0,0.0,0.0,0.0,0.0,0.0,6.35039990387,0.0,0.0,0.0,0.0,0.0,0.0,99999.0,0.0,0.0,0.0,0.0,0.0,0.0,99999.0,0.0,0.0,0.0,0.0,0.0,0.0,99999.0
7466413297008,940,7466413297008,local_origin,201617.701713,1908387.39097,-1.21,-0.013580485503,-0.0271912080585,0.700988323645,0.712524791661,1.58759997597,0.0,0.0,0.0,0.0,0.0,0.0,1.58759997597,0.0,0.0,0.0,0.0,0.0,0.0,6.35039990387,0.0,0.0,0.0,0.0,0.0,0.0,99999.0,0.0,0.0,0.0,0.0,0.0,0.0,99999.0,0.0,0.0,0.0,0.0,0.0,0.0,99999.0
7466413297008,941,7466413297008,local_origin,201617.702357,1908387.43527,-1.2,-0.0136808337235,-0.0271268810782,0.700815920721,0.71269489431,1.58759997597,0.0,0.0,0.0,0.0,0.0,0.0,1.58759997597,0.0,0.0,0.0,0.0,0.0,0.0,6.35039990387,0.0,0.0,0.0,0.0,0.0,0.0,99999.0,0.0,0.0,0.0,0.0,0.0,0.0,99999.0,0.0,0.0,0.0,0.0,0.0,0.0,99999.0
7466606297008,942,7466606297008,local_origin,201617.702678,1908387.45742,-1.2,-0.0136324690407,-0.0271941300888,0.700739104813,0.712768785836,1.58759997597,0.0,0.0,0.0,0.0,0.0,0.0,1.58759997597,0.0,0.0,0.0,0.0,0.0,0.0,6.35039990387,0.0,0.0,0.0,0.0,0.0,0.0,99999.0,0.0,0.0,0.0,0.0,0.0,0.0,99999.0,0.0,0.0,0.0,0.0,0.0,0.0,99999.0
7466801297008,943,7466801297008,local_origin,201617.703161,1908387.49064,-1.19,-0.0136047534782,-0.0271787755185,0.700765763964,0.712743690888,1.58759997597,0.0,0.0,0.0,0.0,0.0,0.0,1.58759997597,0.0,0.0,0.0,0.0,0.0,0.0,6.35039990387,0.0,0.0,0.0,0.0,0.0,0.0,99999.0,0.0,0.0,0.0,0.0,0.0,0.0,99999.0,0.0,0.0,0.0,0.0,0.0,0.0,99999.0
7466801297008,944,7466801297008,local_origin,201617.714124,1908387.51263,-1.19,-0.0136977912142,-0.0271076340104,0.70099242179,0.712521698819,1.58759997597,0.0,0.0,0.0,0.0,0.0,0.0,1.58759997597,0.0,0.0,0.0,0.0,0.0,0.0,6.35039990387,0.0,0.0,0.0,0.0,0.0,0.0,99999.0,0.0,0.0,0.0,0.0,0.0,0.0,99999.0,0.0,0.0,0.0,0.0,0.0,0.0,99999.0
7467001297008,945,7467001297008,local_origin,201617.714285,1908387.5237,-1.18,-0.013616830134,-0.0271609713527,0.701108520482,0.712406980651,1.58759997597,0.0,0.0,0.0,0.0,0.0,0.0,1.58759997597,0.0,0.0,0.0,0.0,0.0,0.0,6.35039990387,0.0,0.0,0.0,0.0,0.0,0.0,99999.0,0.0,0.0,0.0,0.0,0.0,0.0,99999.0,0.0,0.0,0.0,0.0,0.0,0.0,99999.0
7467198297008,946,7467198297008,local_origin,201617.725248,1908387.5457,-1.18,-0.0136248542459,-0.0271850884454,0.701267602524,0.712249313066,1.71609985008,0.0,0.0,0.0,0.0,0.0,0.0,1.71609985008,0.0,0.0,0.0,0.0,0.0,0.0,6.86439940033,0.0,0.0,0.0,0.0,0.0,0.0,99999.0,0.0,0.0,0.0,0.0,0.0,0.0,99999.0,0.0,0.0,0.0,0.0,0.0,0.0,99999.0
7467198297008,947,7467198297008,local_origin,201617.73605,1908387.55662,-1.17,-0.0136126181903,-0.0271241360877,0.701195731379,0.712322626458,1.71609985008,0.0,0.0,0.0,0.0,0.0,0.0,1.71609985008,0.0,0.0,0.0,0.0,0.0,0.0,6.86439940033,0.0,0.0,0.0,0.0,0.0,0.0,99999.0,0.0,0.0,0.0,0.0,0.0,0.0,99999.0,0.0,0.0,0.0,0.0,0.0,0.0,99999.0
7467415297008,948,7467415297008,local_origin,201617.746852,1908387.56754,-1.17,-0.0135306278803,-0.0271999349357,0.701128105673,0.712387861409,1.71609985008,0.0,0.0,0.0,0.0,0.0,0.0,1.71609985008,0.0,0.0,0.0,0.0,0.0,0.0,6.86439940033,0.0,0.0,0.0,0.0,0.0,0.0,99999.0,0.0,0.0,0.0,0.0,0.0,0.0,99999.0,0.0,0.0,0.0,0.0,0.0,0.0,99999.0
7467610297008,949,7467610297008,local_origin,201617.746852,1908387.56754,-1.16,-0.0135127269719,-0.0272384842419,0.701021653576,0.712491482337,1.71609985008,0.0,0.0,0.0,0.0,0.0,0.0,1.71609985008,0.0,0.0,0.0,0.0,0.0,0.0,6.86439940033,0.0,0.0,0.0,0.0,0.0,0.0,99999.0,0.0,0.0,0.0,0.0,0.0,0.0,99999.0,0.0,0.0,0.0,0.0,0.0,0.0,99999.0
