%time,field.header.seq,field.header.stamp,field.header.frame_id,field.pose.pose.position.x,field.pose.pose.position.y,field.pose.pose.position.z,field.pose.pose.orientation.x,field.pose.pose.orientation.y,field.pose.pose.orientation.z,field.pose.pose.orientation.w,field.pose.covariance0,field.pose.covariance1,field.pose.covariance2,field.pose.covariance3,field.pose.covariance4,field.pose.covariance5,field.pose.covariance6,field.pose.covariance7,field.pose.covariance8,field.pose.covariance9,field.pose.covariance10,field.pose.covariance11,field.pose.covariance12,field.pose.covariance13,field.pose.covariance14,field.pose.covariance15,field.pose.covariance16,field.pose.covariance17,field.pose.covariance18,field.pose.covariance19,field.pose.covariance20,field.pose.covariance21,field.pose.covariance22,field.pose.covariance23,field.pose.covariance24,field.pose.covariance25,field.pose.covariance26,field.pose.covariance27,field.pose.covariance28,field.pose.covariance29,field.pose.covariance30,field.pose.covariance31,field.pose.covariance32,field.pose.covariance33,field.pose.covariance34,field.pose.covariance35
809861297008,73,809861297008,local_origin,198468.141938,1907366.87281,0.21,0.0405550772754,-0.0145326126432,0.858483071374,0.511029260455,3.49690001783,0.0,0.0,0.0,0.0,0.0,0.0,3.49690001783,0.0,0.0,0.0,0.0,0.0,0.0,13.9876000713,0.0,0.0,0.0,0.0,0.0,0.0,99999.0,0.0,0.0,0.0,0.0,0.0,0.0,99999.0,0.0,0.0,0.0,0.0,0.0,0.0,99999.0
810056297008,74,810056297008,local_origin,198468.119842,1907366.81775,0.21,0.0406354952003,-0.0145954111567,0.858447335764,0.511081111197,3.49690001783,0.0,0.0,0.0,0.0,0.0,0.0,3.49690001783,0.0,0.0,0.0,0.0,0.0,0.0,13.9876000713,0.0,0.0,0.0,0.0,0.0,0.0,99999.0,0.0,0.0,0.0,0.0,0.0,0.0,99999.0,0.0,0.0,0.0,0.0,0.0,0.0,99999.0
810056297008,75,810056297008,local_origin,198468.097908,1907366.77377,0.22,0.0407109772478,-0.0147044370225,0.85840255365,0.511147191863,3.49690001783,0.0,0.0,0.0,0.0,0.0,0.0,3.49690001783,0.0,0.0,0.0,0.0,0.0,0.0,13.9876000713,0.0,0.0,0.0,0.0,0.0,0.0,99999.0,0.0,0.0,0.0,0.0,0.0,0.0,99999.0,0.0,0.0,0.0,0.0,0.0,0.0,99999.0
810251297008,76,810251297008,local_origin,198468.065494,1907366.74102,0.22,0.0409134234332,-0.0146515560803,0.858393786706,0.511147269025,3.49690001783,0.0,0.0,0.0,0.0,0.0,0.0,3.49690001783,0.0,0.0,0.0,0.0,0.0,0.0,13.9876000713,0.0,0.0,0.0,0.0,0.0,0.0,99999.0,0.0,0.0,0.0,0.0,0.0,0.0,99999.0,0.0,0.0,0.0,0.0,0.0,0.0,99999.0
812858297008,77,812858297008,local_origin,198468.464609,1907367.10068,0.23,0.0408704900699,-0.0145597548294,0.858425004446,0.511100898377,3.20409986343,0.0,0.0,0.0,0.0,0.0,0.0,3.20409986343,0.0,0.0,0.0,0.0,0.0,0.0,12.8163994537,0.0,0.0,0.0,0.0,0.0,0.0,99999.0,0.0,0.0,0.0,0.0,0.0,0.0,99999.0,0.0,0.0,0.0,0.0,0.0,0.0,99999.0
812858297008,78,812858297008,local_origin,198468.486056,1907367.11144,0.23,0.0408337216855,-0.0148111394138,0.858741811462,0.510564137567,3.20409986343,0.0,0.0,0.0,0.0,0.0,0.0,3.20409986343,0.0,0.0,0.0,0.0,0.0,0.0,12.8163994537,0.0,0.0,0.0,0.0,0.0,0.0,99999.0,0.0,0.0,0.0,0.0,0.0,0.0,99999.0,0.0,0.0,0.0,0.0,0.0,0.0,99999.0
813058297008,79,813058297008,local_origin,198468.507502,1907367.1222,0.23,0.040871053979,-0.0147280238976,0.858703324247,0.510628282791,3.49690001783,0.0,0.0,0.0,0.0,0.0,0.0,3.49690001783,0.0,0.0,0.0,0.0,0.0,0.0,13.9876000713,0.0,0.0,0.0,0.0,0.0,0.0,99999.0,0.0,0.0,0.0,0.0,0.0,0.0,99999.0,0.0,0.0,0.0,0.0,0.0,0.0,99999.0
813255297008,80,813255297008,local_origin,198468.518307,1907367.13312,0.23,0.0407434873045,-0.014713864991,0.858682875643,0.510673270788,3.49690001783,0.0,0.0,0.0,0.0,0.0,0.0,3.49690001783,0.0,0.0,0.0,0.0,0.0,0.0,13.9876000713,0.0,0.0,0.0,0.0,0.0,0.0,99999.0,0.0,0.0,0.0,0.0,0.0,0.0,99999.0,0.0,0.0,0.0,0.0,0.0,0.0,99999.0
813442297008,81,813442297008,local_origin,198468.529111,1907367.14404,0.24,0.0409016692315,-0.0147389653987,0.858645742508,0.510722336722,3.49690001783,0.0,0.0,0.0,0.0,0.0,0.0,3.49690001783,0.0,0.0,0.0,0.0,0.0,0.0,13.9876000713,0.0,0.0,0.0,0.0,0.0,0.0,99999.0,0.0,0.0,0.0,0.0,0.0,0.0,99999.0,0.0,0.0,0.0,0.0,0.0,0.0,99999.0
813442297008,82,813442297008,local_origin,198468.507827,1907367.14435,0.23,0.0409480514025,-0.0146674244563,0.858601000562,0.510795894248,3.49690001783,0.0,0.0,0.0,0.0,0.0,0.0,3.49690001783,0.0,0.0,0.0,0.0,0.0,0.0,13.9876000713,0.0,0.0,0.0,0.0,0.0,0.0,99999.0,0.0,0.0,0.0,0.0,0.0,0.0,99999.0,0.0,0.0,0.0,0.0,0.0,0.0,99999.0
813660297008,83,813660297008,local_origin,198468.486706,1907367.15574,0.23,0.0408210823619,-0.0145147524828,0.858630935958,0.510760097316,3.49690001783,0.0,0.0,0.0,0.0,0.0,0.0,3.49690001783,0.0,0.0,0.0,0.0,0.0,0.0,13.9876000713,0.0,0.0,0.0,0.0,0.0,0.0,99999.0,0.0,0.0,0.0,0.0,0.0,0.0,99999.0,0.0,0.0,0.0,0.0,0.0,0.0,99999.0
813854297008,84,813854297008,local_origin,198468.465584,1907367.16713,0.25,0.0407816309539,-0.0145820341752,0.858652151234,0.510725666124,3.49690001783,0.0,0.0,0.0,0.0,0.0,0.0,3.49690001783,0.0,0.0,0.0,0.0,0.0,0.0,13.9876000713,0.0,0.0,0.0,0.0,0.0,0.0,99999.0,0.0,0.0,0.0,0.0,0.0,0.0,99999.0,0.0,0.0,0.0,0.0,0.0,0.0,99999.0
813854297008,85,813854297008,local_origin,198468.455267,1907367.18943,0.25,0.0407989128579,-0.014627974274,0.858674531486,0.51068534349,3.49690001783,0.0,0.0,0.0,0.0,0.0,0.0,3.49690001783,0.0,0.0,0.0,0.0,0.0,0.0,13.9876000713,0.0,0.0,0.0,0.0,0.0,0.0,99999.0,0.0,0.0,0.0,0.0,0.0,0.0,99999.0,0.0,0.0,0.0,0.0,0.0,0.0,99999.0
814051297008,86,814051297008,local_origin,198468.434146,1907367.20082,0.26,0.0407740116606,-0.0145781046395,0.858581058857,0.510845890862,3.49690001783,0.0,0.0,0.0,0.0,0.0,0.0,3.49690001783,0.0,0.0,0.0,0.0,0.0,0.0,13.9876000713,0.0,0.0,0.0,0.0,0.0,0.0,99999.0,0.0,0.0,0.0,0.0,0.0,0.0,99999.0,0.0,0.0,0.0,0.0,0.0,0.0,99999.0
814248297008,87,814248297008,local_origin,198468.380936,1907367.2016,0.26,0.0407576925216,-0.014461505391,0.858561603307,0.510883204548,3.49690001783,0.0,0.0,0.0,0.0,0.0,0.0,3.49690001783,0.0,0.0,0.0,0.0,0.0,0.0,13.9876000713,0.0,0.0,0.0,0.0,0.0,0.0,99999.0,0.0,0.0,0.0,0.0,0.0,0.0,99999.0,0.0,0.0,0.0,0.0,0.0,0.0,99999.0
814248297008,88,814248297008,local_origin,198468.306279,1907367.19162,0.26,0.0408987796884,-0.0145187419257,0.858514285394,0.510949819187,3.49690001783,0.0,0.0,0.0,0.0,0.0,0.0,3.49690001783,0.0,0.0,0.0,0.0,0.0,0.0,13.9876000713,0.0,0.0,0.0,0.0,0.0,0.0,99999.0,0.0,0.0,0.0,0.0,0.0,0.0,99999.0,0.0,0.0,0.0,0.0,0.0,0.0,99999.0
814465297008,89,814465297008,local_origin,198468.220981,1907367.18179,0.26,0.0408818116689,-0.0144697990834,0.858503338402,0.510970958413,3.49690001783,0.0,0.0,0.0,0.0,0.0,0.0,3.49690001783,0.0,0.0,0.0,0.0,0.0,0.0,13.9876000713,0.0,0.0,0.0,0.0,0.0,0.0,99999.0,0.0,0.0,0.0,0.0,0.0,0.0,99999.0,0.0,0.0,0.0,0.0,0.0,0.0,99999.0
814662297008,90,814662297008,local_origin,198468.114399,1907367.17228,0.27,0.0408737337223,-0.0144977154413,0.858516132289,0.510949317192,3.49690001783,0.0,0.0,0.0,0.0,0.0,0.0,3.49690001783,0.0,0.0,0.0,0.0,0.0,0.0,13.9876000713,0.0,0.0,0.0,0.0,0.0,0.0,99999.0,0.0,0.0,0.0,0.0,0.0,0.0,99999.0,0.0,0.0,0.0,0.0,0.0,0.0,99999.0
814859297008,91,814859297008,local_origin,198468.028938,1907367.15138,0.27,0.0409945794474,-0.0146780433726,0.858594089399,0.510803474095,3.49690001783,0.0,0.0,0.0,0.0,0.0,0.0,3.49690001783,0.0,0.0,0.0,0.0,0.0,0.0,13.9876000713,0.0,0.0,0.0,0.0,0.0,0.0,99999.0,0.0,0.0,0.0,0.0,0.0,0.0,99999.0,0.0,0.0,0.0,0.0,0.0,0.0,99999.0
814859297008,92,814859297008,local_origin,198467.943477,1907367.13048,0.27,0.0410408493372,-0.0146606082265,0.858653826414,0.510699835164,3.49690001783,0.0,0.0,0.0,0.0,0.0,0.0,3.49690001783,0.0,0.0,0.0,0.0,0.0,0.0,13.9876000713,0.0,0.0,0.0,0.0,0.0,0.0,99999.0,0.0,0.0,0.0,0.0,0.0,0.0,99999.0,0.0,0.0,0.0,0.0,0.0,0.0,99999.0
815056297008,93,815056297008,local_origin,198467.857854,1907367.09851,0.27,0.0408352760183,-0.0145579157823,0.85864738715,0.510730077303,3.49690001783,0.0,0.0,0.0,0.0,0.0,0.0,3.49690001783,0.0,0.0,0.0,0.0,0.0,0.0,13.9876000713,0.0,0.0,0.0,0.0,0.0,0.0,99999.0,0.0,0.0,0.0,0.0,0.0,0.0,99999.0,0.0,0.0,0.0,0.0,0.0,0.0,99999.0
815254297008,94,815254297008,local_origin,198467.77223,1907367.06653,0.26,0.0408582456258,-0.0145552498494,0.858597156598,0.510812755468,3.49690001783,0.0,0.0,0.0,0.0,0.0,0.0,3.49690001783,0.0,0.0,0.0,0.0,0.0,0.0,13.9876000713,0.0,0.0,0.0,0.0,0.0,0.0,99999.0,0.0,0.0,0.0,0.0,0.0,0.0,99999.0,0.0,0.0,0.0,0.0,0.0,0.0,99999.0
815254297008,95,815254297008,local_origin,198467.654356,1907367.01288,0.27,0.0407979951613,-0.0145107508372,0.858543069642,0.510909736911,3.49690001783,0.0,0.0,0.0,0.0,0.0,0.0,3.49690001783,0.0,0.0,0.0,0.0,0.0,0.0,13.9876000713,0.0,0.0,0.0,0.0,0.0,0.0,99999.0,0.0,0.0,0.0,0.0,0.0,0.0,99999.0,0.0,0.0,0.0,0.0,0.0,0.0,99999.0
815457297008,96,815457297008,local_origin,198467.579375,1907366.98075,0.26,0.0406606571579,-0.0143830747521,0.85857561164,0.510869608822,3.49690001783,0.0,0.0,0.0,0.0,0.0,0.0,3.49690001783,0.0,0.0,0.0,0.0,0.0,0.0,13.9876000713,0.0,0.0,0.0,0.0,0.0,0.0,99999.0,0.0,0.0,0.0,0.0,0.0,0.0,99999.0,0.0,0.0,0.0,0.0,0.0,0.0,99999.0
815650297008,97,815650297008,local_origin,198467.493589,1907366.93771,0.26,0.040674312038,-0.0144105228378,0.858554908786,0.510902540384,3.49690001783,0.0,0.0,0.0,0.0,0.0,0.0,3.49690001783,0.0,0.0,0.0,0.0,0.0,0.0,13.9876000713,0.0,0.0,0.0,0.0,0.0,0.0,99999.0,0.0,0.0,0.0,0.0,0.0,0.0,99999.0,0.0,0.0,0.0,0.0,0.0,0.0,99999.0
815650297008,98,815650297008,local_origin,198467.407803,1907366.89466,0.26,0.0406893738758,-0.0144315458566,0.858593455249,0.510835965787,3.49690001783,0.0,0.0,0.0,0.0,0.0,0.0,3.49690001783,0.0,0.0,0.0,0.0,0.0,0.0,13.9876000713,0.0,0.0,0.0,0.0,0.0,0.0,99999.0,0.0,0.0,0.0,0.0,0.0,0.0,99999.0,0.0,0.0,0.0,0.0,0.0,0.0,99999.0
815856297008,99,815856297008,local_origin,198467.311213,1907366.84069,0.26,0.0405571736848,-0.0143604442936,0.858688611553,0.510688517289,3.49690001783,0.0,0.0,0.0,0.0,0.0,0.0,3.49690001783,0.0,0.0,0.0,0.0,0.0,0.0,13.9876000713,0.0,0.0,0.0,0.0,0.0,0.0,99999.0,0.0,0.0,0.0,0.0,0.0,0.0,99999.0,0.0,0.0,0.0,0.0,0.0,0.0,99999.0
816054297008,100,816054297008,local_origin,198467.203818,1907366.77581,0.27,0.0404243667137,-0.0143356005579,0.85880987651,0.51049579542,3.49690001783,0.0,0.0,0.0,0.0,0.0,0.0,3.49690001783,0.0,0.0,0.0,0.0,0.0,0.0,13.9876000713,0.0,0.0,0.0,0.0,0.0,0.0,99999.0,0.0,0.0,0.0,0.0,0.0,0.0,99999.0,0.0,0.0,0.0,0.0,0.0,0.0,99999.0
816248297008,101,816248297008,local_origin,198467.096586,1907366.722,0.27,0.0404925644711,-0.0144298245683,0.858875898274,0.510376648907,3.49690001783,0.0,0.0,0.0,0.0,0.0,0.0,3.49690001783,0.0,0.0,0.0,0.0,0.0,0.0,13.9876000713,0.0,0.0,0.0,0.0,0.0,0.0,99999.0,0.0,0.0,0.0,0.0,0.0,0.0,99999.0,0.0,0.0,0.0,0.0,0.0,0.0,99999.0
816248297008,102,816248297008,local_origin,198467.010638,1907366.66788,0.27,0.0404399511791,-0.0143471042755,0.858920450234,0.510308172694,3.49690001783,0.0,0.0,0.0,0.0,0.0,0.0,3.49690001783,0.0,0.0,0.0,0.0,0.0,0.0,13.9876000713,0.0,0.0,0.0,0.0,0.0,0.0,99999.0,0.0,0.0,0.0,0.0,0.0,0.0,99999.0,0.0,0.0,0.0,0.0,0.0,0.0,99999.0
816450297008,103,816450297008,local_origin,198466.913885,1907366.60284,0.27,0.0402928262645,-0.0142876102828,0.858956199683,0.51026130499,3.49690001783,0.0,0.0,0.0,0.0,0.0,0.0,3.49690001783,0.0,0.0,0.0,0.0,0.0,0.0,13.9876000713,0.0,0.0,0.0,0.0,0.0,0.0,99999.0,0.0,0.0,0.0,0.0,0.0,0.0,99999.0,0.0,0.0,0.0,0.0,0.0,0.0,99999.0
816672297008,104,816672297008,local_origin,198466.827612,1907366.52657,0.26,0.0402925732963,-0.0143547842178,0.858874116854,0.510397590224,3.49690001783,0.0,0.0,0.0,0.0,0.0,0.0,3.49690001783,0.0,0.0,0.0,0.0,0.0,0.0,13.9876000713,0.0,0.0,0.0,0.0,0.0,0.0,99999.0,0.0,0.0,0.0,0.0,0.0,0.0,99999.0,0.0,0.0,0.0,0.0,0.0,0.0,99999.0
816672297008,105,816672297008,local_origin,198466.773752,1907366.48306,0.25,0.0402797946747,-0.0143441183997,0.858871580583,0.510403166599,3.49690001783,0.0,0.0,0.0,0.0,0.0,0.0,3.49690001783,0.0,0.0,0.0,0.0,0.0,0.0,13.9876000713,0.0,0.0,0.0,0.0,0.0,0.0,99999.0,0.0,0.0,0.0,0.0,0.0,0.0,99999.0,0.0,0.0,0.0,0.0,0.0,0.0,99999.0
816867297008,106,816867297008,local_origin,198466.762623,1907366.44999,0.25,0.0402856861083,-0.0144007987746,0.858994575845,0.510194079894,3.20409986343,0.0,0.0,0.0,0.0,0.0,0.0,3.20409986343,0.0,0.0,0.0,0.0,0.0,0.0,12.8163994537,0.0,0.0,0.0,0.0,0.0,0.0,99999.0,0.0,0.0,0.0,0.0,0.0,0.0,99999.0,0.0,0.0,0.0,0.0,0.0,0.0,99999.0
817062297008,107,817062297008,local_origin,198466.762298,1907366.42784,0.26,0.040335372261,-0.0144461888765,0.859058203627,0.510081726935,3.20409986343,0.0,0.0,0.0,0.0,0.0,0.0,3.20409986343,0.0,0.0,0.0,0.0,0.0,0.0,12.8163994537,0.0,0.0,0.0,0.0,0.0,0.0,99999.0,0.0,0.0,0.0,0.0,0.0,0.0,99999.0,0.0,0.0,0.0,0.0,0.0,0.0,99999.0
817062297008,108,817062297008,local_origin,198466.805028,1907366.43829,0.26,0.0403332024332,-0.0145035959593,0.859059021897,0.510078891333,3.20409986343,0.0,0.0,0.0,0.0,0.0,0.0,3.20409986343,0.0,0.0,0.0,0.0,0.0,0.0,12.8163994537,0.0,0.0,0.0,0.0,0.0,0.0,99999.0,0.0,0.0,0.0,0.0,0.0,0.0,99999.0,0.0,0.0,0.0,0.0,0.0,0.0,99999.0
817265297008,109,817265297008,local_origin,198466.890814,1907366.48134,0.26,0.0403166965838,-0.0145419386135,0.859034936987,0.510119665407,3.20409986343,0.0,0.0,0.0,0.0,0.0,0.0,3.20409986343,0.0,0.0,0.0,0.0,0.0,0.0,12.8163994537,0.0,0.0,0.0,0.0,0.0,0.0,99999.0,0.0,0.0,0.0,0.0,0.0,0.0,99999.0,0.0,0.0,0.0,0.0,0.0,0.0,99999.0
817461297008,110,817461297008,local_origin,198467.008851,1907366.54607,0.26,0.0401797750942,-0.0145301393887,0.859026253091,0.510145427523,3.20409986343,0.0,0.0,0.0,0.0,0.0,0.0,3.20409986343,0.0,0.0,0.0,0.0,0.0,0.0,12.8163994537,0.0,0.0,0.0,0.0,0.0,0.0,99999.0,0.0,0.0,0.0,0.0,0.0,0.0,99999.0,0.0,0.0,0.0,0.0,0.0,0.0,99999.0
817659297008,111,817659297008,local_origin,198467.137529,1907366.61064,0.26,0.0403068129799,-0.0146267111243,0.858982170206,0.510206871197,3.20409986343,0.0,0.0,0.0,0.0,0.0,0.0,3.20409986343,0.0,0.0,0.0,0.0,0.0,0.0,12.8163994537,0.0,0.0,0.0,0.0,0.0,0.0,99999.0,0.0,0.0,0.0,0.0,0.0,0.0,99999.0,0.0,0.0,0.0,0.0,0.0,0.0,99999.0
817659297008,112,817659297008,local_origin,198467.351506,1907366.68503,0.26,0.0404564647406,-0.0147163389959,0.858912056426,0.510310477212,3.20409986343,0.0,0.0,0.0,0.0,0.0,0.0,3.20409986343,0.0,0.0,0.0,0.0,0.0,0.0,12.8163994537,0.0,0.0,0.0,0.0,0.0,0.0,99999.0,0.0,0.0,0.0,0.0,0.0,0.0,99999.0,0.0,0.0,0.0,0.0,0.0,0.0,99999.0
817858297008,113,817858297008,local_origin,198467.57645,1907366.78142,0.27,0.0404430842058,-0.0146140977487,0.858912324081,0.510314025507,3.20409986343,0.0,0.0,0.0,0.0,0.0,0.0,3.20409986343,0.0,0.0,0.0,0.0,0.0,0.0,12.8163994537,0.0,0.0,0.0,0.0,0.0,0.0,99999.0,0.0,0.0,0.0,0.0,0.0,0.0,99999.0,0.0,0.0,0.0,0.0,0.0,0.0,99999.0
818054297008,114,818054297008,local_origin,198467.844287,1907366.89933,0.27,0.040522964844,-0.0147309777962,0.858927287179,0.510279142189,3.20409986343,0.0,0.0,0.0,0.0,0.0,0.0,3.20409986343,0.0,0.0,0.0,0.0,0.0,0.0,12.8163994537,0.0,0.0,0.0,0.0,0.0,0.0,99999.0,0.0,0.0,0.0,0.0,0.0,0.0,99999.0,0.0,0.0,0.0,0.0,0.0,0.0,99999.0
818054297008,115,818054297008,local_origin,198468.155017,1907367.03877,0.27,0.040654370785,-0.0148397277748,0.858965154856,0.510201790823,3.20409986343,0.0,0.0,0.0,0.0,0.0,0.0,3.20409986343,0.0,0.0,0.0,0.0,0.0,0.0,12.8163994537,0.0,0.0,0.0,0.0,0.0,0.0,99999.0,0.0,0.0,0.0,0.0,0.0,0.0,99999.0,0.0,0.0,0.0,0.0,0.0,0.0,99999.0
818252297008,116,818252297008,local_origin,198468.561687,1907367.18787,0.27,0.0405329804212,-0.0148041821479,0.858960708873,0.510219966585,3.20409986343,0.0,0.0,0.0,0.0,0.0,0.0,3.20409986343,0.0,0.0,0.0,0.0,0.0,0.0,12.8163994537,0.0,0.0,0.0,0.0,0.0,0.0,99999.0,0.0,0.0,0.0,0.0,0.0,0.0,99999.0,0.0,0.0,0.0,0.0,0.0,0.0,99999.0
818452297008,117,818452297008,local_origin,198468.904505,1907367.33791,0.28,0.0405793119746,-0.0147470522402,0.858928286916,0.510272517216,4.0,0.0,0.0,0.0,0.0,0.0,0.0,4.0,0.0,0.0,0.0,0.0,0.0,0.0,16.0,0.0,0.0,0.0,0.0,0.0,0.0,99999.0,0.0,0.0,0.0,0.0,0.0,0.0,99999.0,0.0,0.0,0.0,0.0,0.0,0.0,99999.0
818645297008,118,818645297008,local_origin,198469.236519,1907367.47703,0.29,0.0406662051312,-0.0148555055204,0.858868992656,0.510362250925,4.0,0.0,0.0,0.0,0.0,0.0,0.0,4.0,0.0,0.0,0.0,0.0,0.0,0.0,16.0,0.0,0.0,0.0,0.0,0.0,0.0,99999.0,0.0,0.0,0.0,0.0,0.0,0.0,99999.0,0.0,0.0,0.0,0.0,0.0,0.0,99999.0
818645297008,119,818645297008,local_origin,198469.600946,1907367.64891,0.29,0.0405900294884,-0.0148630098797,0.85888635354,0.510338879713,4.0,0.0,0.0,0.0,0.0,0.0,0.0,4.0,0.0,0.0,0.0,0.0,0.0,0.0,16.0,0.0,0.0,0.0,0.0,0.0,0.0,99999.0,0.0,0.0,0.0,0.0,0.0,0.0,99999.0,0.0,0.0,0.0,0.0,0.0,0.0,99999.0
818841297008,120,818841297008,local_origin,198469.87975,1907367.78881,0.29,0.0404381284292,-0.0147434482586,0.858850598016,0.51041457541,4.0,0.0,0.0,0.0,0.0,0.0,0.0,4.0,0.0,0.0,0.0,0.0,0.0,0.0,16.0,0.0,0.0,0.0,0.0,0.0,0.0,99999.0,0.0,0.0,0.0,0.0,0.0,0.0,99999.0,0.0,0.0,0.0,0.0,0.0,0.0,99999.0
819042297008,121,819042297008,local_origin,198470.16952,1907367.9507,0.29,0.0406406955314,-0.0147874311956,0.858809310039,0.510466683277,4.0,0.0,0.0,0.0,0.0,0.0,0.0,4.0,0.0,0.0,0.0,0.0,0.0,0.0,16.0,0.0,0.0,0.0,0.0,0.0,0.0,99999.0,0.0,0.0,0.0,0.0,0.0,0.0,99999.0,0.0,0.0,0.0,0.0,0.0,0.0,99999.0
819042297008,122,819042297008,local_origin,198470.373343,1907368.05848,0.29,0.0407613037176,-0.0148822505579,0.858805531407,0.51046066838,4.0,0.0,0.0,0.0,0.0,0.0,0.0,4.0,0.0,0.0,0.0,0.0,0.0,0.0,16.0,0.0,0.0,0.0,0.0,0.0,0.0,99999.0,0.0,0.0,0.0,0.0,0.0,0.0,99999.0,0.0,0.0,0.0,0.0,0.0,0.0,99999.0
819264297008,123,819264297008,local_origin,198470.513151,1907368.15611,0.3,0.0406639912932,-0.0148914600125,0.858835243375,0.510418170687,4.0,0.0,0.0,0.0,0.0,0.0,0.0,4.0,0.0,0.0,0.0,0.0,0.0,0.0,16.0,0.0,0.0,0.0,0.0,0.0,0.0,99999.0,0.0,0.0,0.0,0.0,0.0,0.0,99999.0,0.0,0.0,0.0,0.0,0.0,0.0,99999.0
819460297008,124,819460297008,local_origin,198470.620546,1907368.221,0.3,0.0406940440021,-0.0148590543221,0.858919333716,0.510275201687,4.0,0.0,0.0,0.0,0.0,0.0,0.0,4.0,0.0,0.0,0.0,0.0,0.0,0.0,16.0,0.0,0.0,0.0,0.0,0.0,0.0,99999.0,0.0,0.0,0.0,0.0,0.0,0.0,99999.0,0.0,0.0,0.0,0.0,0.0,0.0,99999.0
819460297008,125,819460297008,local_origin,198470.695689,1907368.2642,0.31,0.0407011522365,-0.0149998973196,0.858910360324,0.510285618272,4.0,0.0,0.0,0.0,0.0,0.0,0.0,4.0,0.0,0.0,0.0,0.0,0.0,0.0,16.0,0.0,0.0,0.0,0.0,0.0,0.0,99999.0,0.0,0.0,0.0,0.0,0.0,0.0,99999.0,0.0,0.0,0.0,0.0,0.0,0.0,99999.0
819658297008,126,819658297008,local_origin,198470.738257,1907368.26357,0.32,0.0405158784334,-0.0146373367655,0.858936108479,0.510267550916,4.0,0.0,0.0,0.0,0.0,0.0,0.0,4.0,0.0,0.0,0.0,0.0,0.0,0.0,16.0,0.0,0.0,0.0,0.0,0.0,0.0,99999.0,0.0,0.0,0.0,0.0,0.0,0.0,99999.0,0.0,0.0,0.0,0.0,0.0,0.0,99999.0
819854297008,127,819854297008,local_origin,198470.769696,1907368.22988,0.32,0.0404988124893,-0.014673791836,0.858949845488,0.510244734374,4.0,0.0,0.0,0.0,0.0,0.0,0.0,4.0,0.0,0.0,0.0,0.0,0.0,0.0,16.0,0.0,0.0,0.0,0.0,0.0,0.0,99999.0,0.0,0.0,0.0,0.0,0.0,0.0,99999.0,0.0,0.0,0.0,0.0,0.0,0.0,99999.0
820046297008,128,820046297008,local_origin,198470.779201,1907368.15221,0.32,0.0407893673323,-0.0147887328124,0.858840993594,0.510401477875,4.0,0.0,0.0,0.0,0.0,0.0,0.0,4.0,0.0,0.0,0.0,0.0,0.0,0.0,16.0,0.0,0.0,0.0,0.0,0.0,0.0,99999.0,0.0,0.0,0.0,0.0,0.0,0.0,99999.0,0.0,0.0,0.0,0.0,0.0,0.0,99999.0
820046297008,129,820046297008,local_origin,198470.788705,1907368.07453,0.32,0.0407580816684,-0.0149039146426,0.858842132529,0.510398710324,4.0,0.0,0.0,0.0,0.0,0.0,0.0,4.0,0.0,0.0,0.0,0.0,0.0,0.0,16.0,0.0,0.0,0.0,0.0,0.0,0.0,99999.0,0.0,0.0,0.0,0.0,0.0,0.0,99999.0,0.0,0.0,0.0,0.0,0.0,0.0,99999.0
820247297008,130,820247297008,local_origin,198470.798048,1907367.98579,0.32,0.0405797337882,-0.0148741267807,0.858891580316,0.510330577979,4.0,0.0,0.0,0.0,0.0,0.0,0.0,4.0,0.0,0.0,0.0,0.0,0.0,0.0,16.0,0.0,0.0,0.0,0.0,0.0,0.0,99999.0,0.0,0.0,0.0,0.0,0.0,0.0,99999.0,0.0,0.0,0.0,0.0,0.0,0.0,99999.0
820443297008,131,820443297008,local_origin,198470.796585,1907367.88612,0.33,0.0406069405263,-0.0146333714463,0.858942273843,0.510250047551,4.0,0.0,0.0,0.0,0.0,0.0,0.0,4.0,0.0,0.0,0.0,0.0,0.0,0.0,16.0,0.0,0.0,0.0,0.0,0.0,0.0,99999.0,0.0,0.0,0.0,0.0,0.0,0.0,99999.0,0.0,0.0,0.0,0.0,0.0,0.0,99999.0
820443297008,132,820443297008,local_origin,198470.795286,1907367.79753,0.34,0.0401896386751,-0.0146202937592,0.858977184724,0.510224691756,4.0,0.0,0.0,0.0,0.0,0.0,0.0,4.0,0.0,0.0,0.0,0.0,0.0,0.0,16.0,0.0,0.0,0.0,0.0,0.0,0.0,99999.0,0.0,0.0,0.0,0.0,0.0,0.0,99999.0,0.0,0.0,0.0,0.0,0.0,0.0,99999.0
820659297008,133,820659297008,local_origin,198470.751743,1907367.73171,0.34,0.0405306282686,-0.01479059118,0.858942695796,0.510250871555,4.0,0.0,0.0,0.0,0.0,0.0,0.0,4.0,0.0,0.0,0.0,0.0,0.0,0.0,16.0,0.0,0.0,0.0,0.0,0.0,0.0,99999.0,0.0,0.0,0.0,0.0,0.0,0.0,99999.0,0.0,0.0,0.0,0.0,0.0,0.0,99999.0
820838297008,134,820838297008,local_origin,198470.687728,1907367.72157,0.34,0.0406203454281,-0.0150783931,0.858931724643,0.510253781956,67.7328924652,0.0,0.0,0.0,0.0,0.0,0.0,67.7328924652,0.0,0.0,0.0,0.0,0.0,0.0,270.931569861,0.0,0.0,0.0,0.0,0.0,0.0,99999.0,0.0,0.0,0.0,0.0,0.0,0.0,99999.0,0.0,0.0,0.0,0.0,0.0,0.0,99999.0
821033297008,135,821033297008,local_origin,198470.613397,1907367.73374,0.35,0.0405446054964,-0.0144732418421,0.858802587627,0.510494638287,67.7328924652,0.0,0.0,0.0,0.0,0.0,0.0,67.7328924652,0.0,0.0,0.0,0.0,0.0,0.0,270.931569861,0.0,0.0,0.0,0.0,0.0,0.0,99999.0,0.0,0.0,0.0,0.0,0.0,0.0,99999.0,0.0,0.0,0.0,0.0,0.0,0.0,99999.0
821033297008,136,821033297008,local_origin,198470.538578,1907367.71268,0.35,0.0406830704344,-0.0148611594589,0.858734354595,0.510587252052,67.7328924652,0.0,0.0,0.0,0.0,0.0,0.0,67.7328924652,0.0,0.0,0.0,0.0,0.0,0.0,270.931569861,0.0,0.0,0.0,0.0,0.0,0.0,99999.0,0.0,0.0,0.0,0.0,0.0,0.0,99999.0,0.0,0.0,0.0,0.0,0.0,0.0,99999.0
821229297008,137,821229297008,local_origin,198470.474401,1907367.69147,0.35,0.0409322963442,-0.0149062236094,0.858557292421,0.510863707113,67.7328924652,0.0,0.0,0.0,0.0,0.0,0.0,67.7328924652,0.0,0.0,0.0,0.0,0.0,0.0,270.931569861,0.0,0.0,0.0,0.0,0.0,0.0,99999.0,0.0,0.0,0.0,0.0,0.0,0.0,99999.0,0.0,0.0,0.0,0.0,0.0,0.0,99999.0
821428297008,138,821428297008,local_origin,198470.410062,1907367.65919,0.36,0.040761885799,-0.0149507052715,0.858703134519,0.510630856731,67.7328924652,0.0,0.0,0.0,0.0,0.0,0.0,67.7328924652,0.0,0.0,0.0,0.0,0.0,0.0,270.931569861,0.0,0.0,0.0,0.0,0.0,0.0,99999.0,0.0,0.0,0.0,0.0,0.0,0.0,99999.0,0.0,0.0,0.0,0.0,0.0,0.0,99999.0
821428297008,139,821428297008,local_origin,198470.367007,1907367.62659,0.36,0.0408847635214,-0.0147009660334,0.858598634401,0.510803976799,67.7328924652,0.0,0.0,0.0,0.0,0.0,0.0,67.7328924652,0.0,0.0,0.0,0.0,0.0,0.0,270.931569861,0.0,0.0,0.0,0.0,0.0,0.0,99999.0,0.0,0.0,0.0,0.0,0.0,0.0,99999.0,0.0,0.0,0.0,0.0,0.0,0.0,99999.0
821644297008,140,821644297008,local_origin,198470.345235,1907367.59368,0.36,0.0410637054499,-0.0148335789355,0.858611455998,0.510764235885,67.7328924652,0.0,0.0,0.0,0.0,0.0,0.0,67.7328924652,0.0,0.0,0.0,0.0,0.0,0.0,270.931569861,0.0,0.0,0.0,0.0,0.0,0.0,99999.0,0.0,0.0,0.0,0.0,0.0,0.0,99999.0,0.0,0.0,0.0,0.0,0.0,0.0,99999.0
821841297008,141,821841297008,local_origin,198470.34491,1907367.57153,0.36,0.041262974309,-0.0148854913793,0.858462612488,0.510996802395,67.7328924652,0.0,0.0,0.0,0.0,0.0,0.0,67.7328924652,0.0,0.0,0.0,0.0,0.0,0.0,270.931569861,0.0,0.0,0.0,0.0,0.0,0.0,99999.0,0.0,0.0,0.0,0.0,0.0,0.0,99999.0,0.0,0.0,0.0,0.0,0.0,0.0,99999.0
821841297008,142,821841297008,local_origin,198470.366194,1907367.57122,0.35,0.0410828763383,-0.0149086882443,0.858447070582,0.511036745544,67.7328924652,0.0,0.0,0.0,0.0,0.0,0.0,67.7328924652,0.0,0.0,0.0,0.0,0.0,0.0,270.931569861,0.0,0.0,0.0,0.0,0.0,0.0,99999.0,0.0,0.0,0.0,0.0,0.0,0.0,99999.0,0.0,0.0,0.0,0.0,0.0,0.0,99999.0
822041297008,143,822041297008,local_origin,198470.409087,1907367.59274,0.35,0.0409370258405,-0.0147454474656,0.85849200405,0.510977700763,67.7328924652,0.0,0.0,0.0,0.0,0.0,0.0,67.7328924652,0.0,0.0,0.0,0.0,0.0,0.0,270.931569861,0.0,0.0,0.0,0.0,0.0,0.0,99999.0,0.0,0.0,0.0,0.0,0.0,0.0,99999.0,0.0,0.0,0.0,0.0,0.0,0.0,99999.0
822236297008,144,822236297008,local_origin,198470.441013,1907367.59227,0.35,0.0410517453163,-0.0149203480924,0.858382590735,0.511147205159,67.7328924652,0.0,0.0,0.0,0.0,0.0,0.0,67.7328924652,0.0,0.0,0.0,0.0,0.0,0.0,270.931569861,0.0,0.0,0.0,0.0,0.0,0.0,99999.0,0.0,0.0,0.0,0.0,0.0,0.0,99999.0,0.0,0.0,0.0,0.0,0.0,0.0,99999.0
822431297008,145,822431297008,local_origin,198470.472777,1907367.58073,0.35,0.0410708572528,-0.0150465259234,0.858474730987,0.51098720434,67.7328924652,0.0,0.0,0.0,0.0,0.0,0.0,67.7328924652,0.0,0.0,0.0,0.0,0.0,0.0,270.931569861,0.0,0.0,0.0,0.0,0.0,0.0,99999.0,0.0,0.0,0.0,0.0,0.0,0.0,99999.0,0.0,0.0,0.0,0.0,0.0,0.0,99999.0
822431297008,146,822431297008,local_origin,198470.504215,1907367.54704,0.35,0.0410589514898,-0.0151660819323,0.858408350353,0.511096132353,67.7328924652,0.0,0.0,0.0,0.0,0.0,0.0,67.7328924652,0.0,0.0,0.0,0.0,0.0,0.0,270.931569861,0.0,0.0,0.0,0.0,0.0,0.0,99999.0,0.0,0.0,0.0,0.0,0.0,0.0,99999.0,0.0,0.0,0.0,0.0,0.0,0.0,99999.0
822654297008,147,822654297008,local_origin,198470.535654,1907367.51335,0.36,0.0411775207814,-0.0152420936425,0.858456849733,0.511002864484,67.7328924652,0.0,0.0,0.0,0.0,0.0,0.0,67.7328924652,0.0,0.0,0.0,0.0,0.0,0.0,270.931569861,0.0,0.0,0.0,0.0,0.0,0.0,99999.0,0.0,0.0,0.0,0.0,0.0,0.0,99999.0,0.0,0.0,0.0,0.0,0.0,0.0,99999.0
822827297008,148,822827297008,local_origin,198470.56693,1907367.46859,0.36,0.0409677346984,-0.0151248421723,0.85829392364,0.511296806664,77.7923946167,0.0,0.0,0.0,0.0,0.0,0.0,77.7923946167,0.0,0.0,0.0,0.0,0.0,0.0,311.169578467,0.0,0.0,0.0,0.0,0.0,0.0,99999.0,0.0,0.0,0.0,0.0,0.0,0.0,99999.0,0.0,0.0,0.0,0.0,0.0,0.0,99999.0
822827297008,149,822827297008,local_origin,198470.597718,1907367.3906,0.35,0.040636935518,-0.0149931427836,0.858333160559,0.511261215648,77.7923946167,0.0,0.0,0.0,0.0,0.0,0.0,77.7923946167,0.0,0.0,0.0,0.0,0.0,0.0,311.169578467,0.0,0.0,0.0,0.0,0.0,0.0,99999.0,0.0,0.0,0.0,0.0,0.0,0.0,99999.0,0.0,0.0,0.0,0.0,0.0,0.0,99999.0
823026297008,150,823026297008,local_origin,198470.628345,1907367.30154,0.36,0.0408044939046,-0.0150536015828,0.858128228881,0.511589997122,77.7923946167,0.0,0.0,0.0,0.0,0.0,0.0,77.7923946167,0.0,0.0,0.0,0.0,0.0,0.0,311.169578467,0.0,0.0,0.0,0.0,0.0,0.0,99999.0,0.0,0.0,0.0,0.0,0.0,0.0,99999.0,0.0,0.0,0.0,0.0,0.0,0.0,99999.0
823246297008,151,823246297008,local_origin,198470.67928,1907367.14572,0.35,0.0410042989506,-0.0152603252122,0.858222070369,0.511410449516,77.7923946167,0.0,0.0,0.0,0.0,0.0,0.0,77.7923946167,0.0,0.0,0.0,0.0,0.0,0.0,311.169578467,0.0,0.0,0.0,0.0,0.0,0.0,99999.0,0.0,0.0,0.0,0.0,0.0,0.0,99999.0,0.0,0.0,0.0,0.0,0.0,0.0,99999.0
823246297008,152,823246297008,local_origin,198470.708931,1907366.99022,0.36,0.0409820175846,-0.0152011033435,0.858141219934,0.511549652861,77.7923946167,0.0,0.0,0.0,0.0,0.0,0.0,77.7923946167,0.0,0.0,0.0,0.0,0.0,0.0,311.169578467,0.0,0.0,0.0,0.0,0.0,0.0,99999.0,0.0,0.0,0.0,0.0,0.0,0.0,99999.0,0.0,0.0,0.0,0.0,0.0,0.0,99999.0
823442297008,153,823442297008,local_origin,198470.759542,1907366.81225,0.36,0.0407253459074,-0.0151801556339,0.858253285421,0.511382740361,77.7923946167,0.0,0.0,0.0,0.0,0.0,0.0,77.7923946167,0.0,0.0,0.0,0.0,0.0,0.0,311.169578467,0.0,0.0,0.0,0.0,0.0,0.0,99999.0,0.0,0.0,0.0,0.0,0.0,0.0,99999.0,0.0,0.0,0.0,0.0,0.0,0.0,99999.0
823649297008,154,823649297008,local_origin,198470.841266,1907366.57845,0.36,0.0409335077324,-0.0152525336428,0.858318794882,0.511254001954,77.7923946167,0.0,0.0,0.0,0.0,0.0,0.0,77.7923946167,0.0,0.0,0.0,0.0,0.0,0.0,311.169578467,0.0,0.0,0.0,0.0,0.0,0.0,99999.0,0.0,0.0,0.0,0.0,0.0,0.0,99999.0,0.0,0.0,0.0,0.0,0.0,0.0,99999.0
823850297008,155,823850297008,local_origin,198470.933144,1907366.31127,0.34,0.0409459084284,-0.0151325851809,0.858379063683,0.511155378021,77.7923946167,0.0,0.0,0.0,0.0,0.0,0.0,77.7923946167,0.0,0.0,0.0,0.0,0.0,0.0,311.169578467,0.0,0.0,0.0,0.0,0.0,0.0,99999.0,0.0,0.0,0.0,0.0,0.0,0.0,99999.0,0.0,0.0,0.0,0.0,0.0,0.0,99999.0
823850297008,156,823850297008,local_origin,198471.014543,1907366.05532,0.37,0.0412750589001,-0.0152673632042,0.858465208479,0.510980198212,77.7923946167,0.0,0.0,0.0,0.0,0.0,0.0,77.7923946167,0.0,0.0,0.0,0.0,0.0,0.0,311.169578467,0.0,0.0,0.0,0.0,0.0,0.0,99999.0,0.0,0.0,0.0,0.0,0.0,0.0,99999.0,0.0,0.0,0.0,0.0,0.0,0.0,99999.0
824025297008,157,824025297008,local_origin,198471.085138,1907365.78845,0.39,0.0413424503312,-0.0151638444928,0.858334041239,0.511198135042,77.7923946167,0.0,0.0,0.0,0.0,0.0,0.0,77.7923946167,0.0,0.0,0.0,0.0,0.0,0.0,311.169578467,0.0,0.0,0.0,0.0,0.0,0.0,99999.0,0.0,0.0,0.0,0.0,0.0,0.0,99999.0,0.0,0.0,0.0,0.0,0.0,0.0,99999.0
824251297008,158,824251297008,local_origin,198471.197163,1907365.44344,0.39,0.0410568876532,-0.0151542748208,0.858413854007,0.511087404638,77.7923946167,0.0,0.0,0.0,0.0,0.0,0.0,77.7923946167,0.0,0.0,0.0,0.0,0.0,0.0,311.169578467,0.0,0.0,0.0,0.0,0.0,0.0,99999.0,0.0,0.0,0.0,0.0,0.0,0.0,99999.0,0.0,0.0,0.0,0.0,0.0,0.0,99999.0
824251297008,159,824251297008,local_origin,198471.300009,1907365.19825,0.38,0.0410273928111,-0.0150248742695,0.858312225907,0.511264245817,77.7923946167,0.0,0.0,0.0,0.0,0.0,0.0,77.7923946167,0.0,0.0,0.0,0.0,0.0,0.0,311.169578467,0.0,0.0,0.0,0.0,0.0,0.0,99999.0,0.0,0.0,0.0,0.0,0.0,0.0,99999.0,0.0,0.0,0.0,0.0,0.0,0.0,99999.0
824449297008,160,824449297008,local_origin,198471.413009,1907364.91968,0.39,0.0407992499371,-0.01482519735,0.858273056546,0.511354080003,77.7923946167,0.0,0.0,0.0,0.0,0.0,0.0,77.7923946167,0.0,0.0,0.0,0.0,0.0,0.0,311.169578467,0.0,0.0,0.0,0.0,0.0,0.0,99999.0,0.0,0.0,0.0,0.0,0.0,0.0,99999.0,0.0,0.0,0.0,0.0,0.0,0.0,99999.0
824642297008,161,824642297008,local_origin,198471.516179,1907364.69664,0.4,0.0409059247628,-0.0148607683714,0.858458238123,0.511033576471,77.7923946167,0.0,0.0,0.0,0.0,0.0,0.0,77.7923946167,0.0,0.0,0.0,0.0,0.0,0.0,311.169578467,0.0,0.0,0.0,0.0,0.0,0.0,99999.0,0.0,0.0,0.0,0.0,0.0,0.0,99999.0,0.0,0.0,0.0,0.0,0.0,0.0,99999.0
824838297008,162,824838297008,local_origin,198471.629992,1907364.47344,0.4,0.0408047878899,-0.0147914918513,0.858383628073,0.511168981953,77.7923946167,0.0,0.0,0.0,0.0,0.0,0.0,77.7923946167,0.0,0.0,0.0,0.0,0.0,0.0,311.169578467,0.0,0.0,0.0,0.0,0.0,0.0,99999.0,0.0,0.0,0.0,0.0,0.0,0.0,99999.0,0.0,0.0,0.0,0.0,0.0,0.0,99999.0
824838297008,163,824838297008,local_origin,198471.775893,1907364.26085,0.41,0.0405915880471,-0.0147063247564,0.858671710768,0.510704356863,77.7923946167,0.0,0.0,0.0,0.0,0.0,0.0,77.7923946167,0.0,0.0,0.0,0.0,0.0,0.0,311.169578467,0.0,0.0,0.0,0.0,0.0,0.0,99999.0,0.0,0.0,0.0,0.0,0.0,0.0,99999.0,0.0,0.0,0.0,0.0,0.0,0.0,99999.0
825060297008,164,825060297008,local_origin,198471.911639,1907364.08164,0.41,0.0407257960287,-0.0148100230057,0.858507660585,0.510966407382,77.7923946167,0.0,0.0,0.0,0.0,0.0,0.0,77.7923946167,0.0,0.0,0.0,0.0,0.0,0.0,311.169578467,0.0,0.0,0.0,0.0,0.0,0.0,99999.0,0.0,0.0,0.0,0.0,0.0,0.0,99999.0,0.0,0.0,0.0,0.0,0.0,0.0,99999.0
825232297008,165,825232297008,local_origin,198472.04771,1907363.92457,0.4,0.0406342648659,-0.0148399700494,0.858575091977,0.510859514196,77.7923946167,0.0,0.0,0.0,0.0,0.0,0.0,77.7923946167,0.0,0.0,0.0,0.0,0.0,0.0,311.169578467,0.0,0.0,0.0,0.0,0.0,0.0,99999.0,0.0,0.0,0.0,0.0,0.0,0.0,99999.0,0.0,0.0,0.0,0.0,0.0,0.0,99999.0
825232297008,166,825232297008,local_origin,198472.21587,1907363.77811,0.41,0.0403117726455,-0.0145186401111,0.858427541974,0.511142177144,77.7923946167,0.0,0.0,0.0,0.0,0.0,0.0,77.7923946167,0.0,0.0,0.0,0.0,0.0,0.0,311.169578467,0.0,0.0,0.0,0.0,0.0,0.0,99999.0,0.0,0.0,0.0,0.0,0.0,0.0,99999.0,0.0,0.0,0.0,0.0,0.0,0.0,99999.0
825448297008,167,825448297008,local_origin,198472.352266,1907363.64319,0.4,0.040400067736,-0.0145268052925,0.858457103641,0.511085323272,77.7923946167,0.0,0.0,0.0,0.0,0.0,0.0,77.7923946167,0.0,0.0,0.0,0.0,0.0,0.0,311.169578467,0.0,0.0,0.0,0.0,0.0,0.0,99999.0,0.0,0.0,0.0,0.0,0.0,0.0,99999.0,0.0,0.0,0.0,0.0,0.0,0.0,99999.0
825654297008,168,825654297008,local_origin,198472.499467,1907363.51919,0.41,0.0403998331212,-0.0145372637581,0.858504121961,0.511006060652,77.7923946167,0.0,0.0,0.0,0.0,0.0,0.0,77.7923946167,0.0,0.0,0.0,0.0,0.0,0.0,311.169578467,0.0,0.0,0.0,0.0,0.0,0.0,99999.0,0.0,0.0,0.0,0.0,0.0,0.0,99999.0,0.0,0.0,0.0,0.0,0.0,0.0,99999.0
825654297008,169,825654297008,local_origin,198472.657147,1907363.38396,0.42,0.0403101618316,-0.0145333215676,0.858588243875,0.51087190263,77.7923946167,0.0,0.0,0.0,0.0,0.0,0.0,77.7923946167,0.0,0.0,0.0,0.0,0.0,0.0,311.169578467,0.0,0.0,0.0,0.0,0.0,0.0,99999.0,0.0,0.0,0.0,0.0,0.0,0.0,99999.0,0.0,0.0,0.0,0.0,0.0,0.0,99999.0
825850297008,170,825850297008,local_origin,198472.804835,1907363.29319,0.44,0.0404553745679,-0.0146631344,0.858611959247,0.51081685426,67.7328924652,0.0,0.0,0.0,0.0,0.0,0.0,67.7328924652,0.0,0.0,0.0,0.0,0.0,0.0,270.931569861,0.0,0.0,0.0,0.0,0.0,0.0,99999.0,0.0,0.0,0.0,0.0,0.0,0.0,99999.0,0.0,0.0,0.0,0.0,0.0,0.0,99999.0
826050297008,171,826050297008,local_origin,198472.932052,1907363.25809,0.46,0.0403421921609,-0.0148039718292,0.85858733778,0.510863125851,6.1504000946,0.0,0.0,0.0,0.0,0.0,0.0,6.1504000946,0.0,0.0,0.0,0.0,0.0,0.0,24.6016003784,0.0,0.0,0.0,0.0,0.0,0.0,99999.0,0.0,0.0,0.0,0.0,0.0,0.0,99999.0,0.0,0.0,0.0,0.0,0.0,0.0,99999.0
826243297008,172,826243297008,local_origin,198473.017512,1907363.27899,0.46,0.0402642809003,-0.014465485049,0.858564548835,0.510917266208,6.1504000946,0.0,0.0,0.0,0.0,0.0,0.0,6.1504000946,0.0,0.0,0.0,0.0,0.0,0.0,24.6016003784,0.0,0.0,0.0,0.0,0.0,0.0,99999.0,0.0,0.0,0.0,0.0,0.0,0.0,99999.0,0.0,0.0,0.0,0.0,0.0,0.0,99999.0
826243297008,173,826243297008,local_origin,198473.072997,1907363.43324,0.46,0.04047831219,-0.0147848580357,0.858587886612,0.510851989503,6.1504000946,0.0,0.0,0.0,0.0,0.0,0.0,6.1504000946,0.0,0.0,0.0,0.0,0.0,0.0,24.6016003784,0.0,0.0,0.0,0.0,0.0,0.0,99999.0,0.0,0.0,0.0,0.0,0.0,0.0,99999.0,0.0,0.0,0.0,0.0,0.0,0.0,99999.0
826445297008,174,826445297008,local_origin,198473.107522,1907363.60996,0.46,0.0404368140748,-0.0145169482601,0.858552489715,0.510922444883,6.1504000946,0.0,0.0,0.0,0.0,0.0,0.0,6.1504000946,0.0,0.0,0.0,0.0,0.0,0.0,24.6016003784,0.0,0.0,0.0,0.0,0.0,0.0,99999.0,0.0,0.0,0.0,0.0,0.0,0.0,99999.0,0.0,0.0,0.0,0.0,0.0,0.0,99999.0
826640297008,175,826640297008,local_origin,198473.142698,1907363.83097,0.46,0.0401845895102,-0.0146139428479,0.858635485059,0.510800093224,6.1504000946,0.0,0.0,0.0,0.0,0.0,0.0,6.1504000946,0.0,0.0,0.0,0.0,0.0,0.0,24.6016003784,0.0,0.0,0.0,0.0,0.0,0.0,99999.0,0.0,0.0,0.0,0.0,0.0,0.0,99999.0,0.0,0.0,0.0,0.0,0.0,0.0,99999.0
826640297008,176,826640297008,local_origin,198473.179985,1907364.19595,0.46,0.040235469028,-0.0144238954351,0.858685835425,0.510716843577,6.1504000946,0.0,0.0,0.0,0.0,0.0,0.0,6.1504000946,0.0,0.0,0.0,0.0,0.0,0.0,24.6016003784,0.0,0.0,0.0,0.0,0.0,0.0,99999.0,0.0,0.0,0.0,0.0,0.0,0.0,99999.0,0.0,0.0,0.0,0.0,0.0,0.0,99999.0
826836297008,177,826836297008,local_origin,198473.216785,1907364.5277,0.46,0.0402721181933,-0.0142018672861,0.858755802469,0.51060252172,6.1504000946,0.0,0.0,0.0,0.0,0.0,0.0,6.1504000946,0.0,0.0,0.0,0.0,0.0,0.0,24.6016003784,0.0,0.0,0.0,0.0,0.0,0.0,99999.0,0.0,0.0,0.0,0.0,0.0,0.0,99999.0,0.0,0.0,0.0,0.0,0.0,0.0,99999.0
827053297008,178,827053297008,local_origin,198473.264552,1907364.88144,0.46,0.0403928879632,-0.0142195950643,0.858832168128,0.510464028809,6.1504000946,0.0,0.0,0.0,0.0,0.0,0.0,6.1504000946,0.0,0.0,0.0,0.0,0.0,0.0,24.6016003784,0.0,0.0,0.0,0.0,0.0,0.0,99999.0,0.0,0.0,0.0,0.0,0.0,0.0,99999.0,0.0,0.0,0.0,0.0,0.0,0.0,99999.0
827053297008,179,827053297008,local_origin,198473.313132,1907365.29055,0.46,0.0403393274503,-0.0140440877364,0.858782201285,0.510557178989,6.1504000946,0.0,0.0,0.0,0.0,0.0,0.0,6.1504000946,0.0,0.0,0.0,0.0,0.0,0.0,24.6016003784,0.0,0.0,0.0,0.0,0.0,0.0,99999.0,0.0,0.0,0.0,0.0,0.0,0.0,99999.0,0.0,0.0,0.0,0.0,0.0,0.0,99999.0
827248297008,180,827248297008,local_origin,198473.360736,1907365.63322,0.46,0.0402408937148,-0.0141912124093,0.858835897301,0.510470549073,6.1504000946,0.0,0.0,0.0,0.0,0.0,0.0,6.1504000946,0.0,0.0,0.0,0.0,0.0,0.0,24.6016003784,0.0,0.0,0.0,0.0,0.0,0.0,99999.0,0.0,0.0,0.0,0.0,0.0,0.0,99999.0,0.0,0.0,0.0,0.0,0.0,0.0,99999.0
827444297008,181,827444297008,local_origin,198473.408503,1907365.98697,0.45,0.0405856829458,-0.0142699852414,0.858676771899,0.510708695112,6.1504000946,0.0,0.0,0.0,0.0,0.0,0.0,6.1504000946,0.0,0.0,0.0,0.0,0.0,0.0,24.6016003784,0.0,0.0,0.0,0.0,0.0,0.0,99999.0,0.0,0.0,0.0,0.0,0.0,0.0,99999.0,0.0,0.0,0.0,0.0,0.0,0.0,99999.0
827644297008,182,827644297008,local_origin,198473.489171,1907366.40669,0.44,0.0407914710232,-0.014555089514,0.85868859031,0.510664381107,6.1504000946,0.0,0.0,0.0,0.0,0.0,0.0,6.1504000946,0.0,0.0,0.0,0.0,0.0,0.0,24.6016003784,0.0,0.0,0.0,0.0,0.0,0.0,99999.0,0.0,0.0,0.0,0.0,0.0,0.0,99999.0,0.0,0.0,0.0,0.0,0.0,0.0,99999.0
827644297008,183,827644297008,local_origin,198473.557734,1907366.7269,0.44,0.0404935927962,-0.0144093023584,0.858676272068,0.510712933785,6.1504000946,0.0,0.0,0.0,0.0,0.0,0.0,6.1504000946,0.0,0.0,0.0,0.0,0.0,0.0,24.6016003784,0.0,0.0,0.0,0.0,0.0,0.0,99999.0,0.0,0.0,0.0,0.0,0.0,0.0,99999.0,0.0,0.0,0.0,0.0,0.0,0.0,99999.0
827839297008,184,827839297008,local_origin,198473.626135,1907367.03603,0.43,0.0404339355254,-0.0145054502345,0.858792893084,0.510518810191,6.1504000946,0.0,0.0,0.0,0.0,0.0,0.0,6.1504000946,0.0,0.0,0.0,0.0,0.0,0.0,24.6016003784,0.0,0.0,0.0,0.0,0.0,0.0,99999.0,0.0,0.0,0.0,0.0,0.0,0.0,99999.0,0.0,0.0,0.0,0.0,0.0,0.0,99999.0
828036297008,185,828036297008,local_origin,198473.705666,1907367.37823,0.43,0.0407614877329,-0.0145848889858,0.858850182249,0.510394109078,8.35210060635,0.0,0.0,0.0,0.0,0.0,0.0,8.35210060635,0.0,0.0,0.0,0.0,0.0,0.0,33.4084024254,0.0,0.0,0.0,0.0,0.0,0.0,99999.0,0.0,0.0,0.0,0.0,0.0,0.0,99999.0,0.0,0.0,0.0,0.0,0.0,0.0,99999.0
828036297008,186,828036297008,local_origin,198473.774554,1907367.72059,0.43,0.0405007900449,-0.0144224932381,0.858914448435,0.51031132455,8.35210060635,0.0,0.0,0.0,0.0,0.0,0.0,8.35210060635,0.0,0.0,0.0,0.0,0.0,0.0,33.4084024254,0.0,0.0,0.0,0.0,0.0,0.0,99999.0,0.0,0.0,0.0,0.0,0.0,0.0,99999.0,0.0,0.0,0.0,0.0,0.0,0.0,99999.0
828236297008,187,828236297008,local_origin,198473.821346,1907368.00789,0.43,0.0405717987706,-0.0146303649199,0.858973189538,0.510200883203,8.35210060635,0.0,0.0,0.0,0.0,0.0,0.0,8.35210060635,0.0,0.0,0.0,0.0,0.0,0.0,33.4084024254,0.0,0.0,0.0,0.0,0.0,0.0,99999.0,0.0,0.0,0.0,0.0,0.0,0.0,99999.0,0.0,0.0,0.0,0.0,0.0,0.0,99999.0
828451297008,188,828451297008,local_origin,198473.868788,1907368.33948,0.43,0.0408089083184,-0.0148538763803,0.858889454735,0.510316470343,6.1504000946,0.0,0.0,0.0,0.0,0.0,0.0,6.1504000946,0.0,0.0,0.0,0.0,0.0,0.0,24.6016003784,0.0,0.0,0.0,0.0,0.0,0.0,99999.0,0.0,0.0,0.0,0.0,0.0,0.0,99999.0,0.0,0.0,0.0,0.0,0.0,0.0,99999.0
828451297008,189,828451297008,local_origin,198473.915743,1907368.63786,0.43,0.0407589440117,-0.0148695816218,0.858905314493,0.510293312479,6.1504000946,0.0,0.0,0.0,0.0,0.0,0.0,6.1504000946,0.0,0.0,0.0,0.0,0.0,0.0,24.6016003784,0.0,0.0,0.0,0.0,0.0,0.0,99999.0,0.0,0.0,0.0,0.0,0.0,0.0,99999.0,0.0,0.0,0.0,0.0,0.0,0.0,99999.0
828647297008,190,828647297008,local_origin,198473.963185,1907368.96945,0.42,0.0407517705399,-0.014919406078,0.858794668697,0.51047862006,6.1504000946,0.0,0.0,0.0,0.0,0.0,0.0,6.1504000946,0.0,0.0,0.0,0.0,0.0,0.0,24.6016003784,0.0,0.0,0.0,0.0,0.0,0.0,99999.0,0.0,0.0,0.0,0.0,0.0,0.0,99999.0,0.0,0.0,0.0,0.0,0.0,0.0,99999.0
828845297008,191,828845297008,local_origin,198474.011602,1907369.36749,0.41,0.0410077281606,-0.015029215897,0.858868910072,0.510329975811,6.1504000946,0.0,0.0,0.0,0.0,0.0,0.0,6.1504000946,0.0,0.0,0.0,0.0,0.0,0.0,24.6016003784,0.0,0.0,0.0,0.0,0.0,0.0,99999.0,0.0,0.0,0.0,0.0,0.0,0.0,99999.0,0.0,0.0,0.0,0.0,0.0,0.0,99999.0
829060297008,192,829060297008,local_origin,198474.037272,1907369.66618,0.41,0.04125641231,-0.0153072887214,0.858849519138,0.510334301053,6.1504000946,0.0,0.0,0.0,0.0,0.0,0.0,6.1504000946,0.0,0.0,0.0,0.0,0.0,0.0,24.6016003784,0.0,0.0,0.0,0.0,0.0,0.0,99999.0,0.0,0.0,0.0,0.0,0.0,0.0,99999.0,0.0,0.0,0.0,0.0,0.0,0.0,99999.0
829060297008,193,829060297008,local_origin,198474.040847,1907369.90981,0.41,0.0412363586605,-0.0152080741191,0.858854615396,0.510330311483,6.1504000946,0.0,0.0,0.0,0.0,0.0,0.0,6.1504000946,0.0,0.0,0.0,0.0,0.0,0.0,24.6016003784,0.0,0.0,0.0,0.0,0.0,0.0,99999.0,0.0,0.0,0.0,0.0,0.0,0.0,99999.0,0.0,0.0,0.0,0.0,0.0,0.0,99999.0
829257297008,194,829257297008,local_origin,198474.055713,1907370.19758,0.41,0.0409077744413,-0.0151006892711,0.858863916262,0.510344292138,3.42250008821,0.0,0.0,0.0,0.0,0.0,0.0,3.42250008821,0.0,0.0,0.0,0.0,0.0,0.0,13.6900003529,0.0,0.0,0.0,0.0,0.0,0.0,99999.0,0.0,0.0,0.0,0.0,0.0,0.0,99999.0,0.0,0.0,0.0,0.0,0.0,0.0,99999.0
829456297008,195,829456297008,local_origin,198474.069767,1907370.42997,0.4,0.0409815103512,-0.014957841463,0.858842776911,0.51037815719,3.42250008821,0.0,0.0,0.0,0.0,0.0,0.0,3.42250008821,0.0,0.0,0.0,0.0,0.0,0.0,13.6900003529,0.0,0.0,0.0,0.0,0.0,0.0,99999.0,0.0,0.0,0.0,0.0,0.0,0.0,99999.0,0.0,0.0,0.0,0.0,0.0,0.0,99999.0
829456297008,196,829456297008,local_origin,198474.094463,1907370.66222,0.41,0.0407974232024,-0.0149009853263,0.858761658618,0.510531041745,3.42250008821,0.0,0.0,0.0,0.0,0.0,0.0,3.42250008821,0.0,0.0,0.0,0.0,0.0,0.0,13.6900003529,0.0,0.0,0.0,0.0,0.0,0.0,99999.0,0.0,0.0,0.0,0.0,0.0,0.0,99999.0,0.0,0.0,0.0,0.0,0.0,0.0,99999.0
829652297008,197,829652297008,local_origin,198474.055794,1907370.92862,0.4,0.0409233151859,-0.0149864869919,0.858662929221,0.510684502863,3.42250008821,0.0,0.0,0.0,0.0,0.0,0.0,3.42250008821,0.0,0.0,0.0,0.0,0.0,0.0,13.6900003529,0.0,0.0,0.0,0.0,0.0,0.0,99999.0,0.0,0.0,0.0,0.0,0.0,0.0,99999.0,0.0,0.0,0.0,0.0,0.0,0.0,99999.0
829849297008,198,829849297008,local_origin,198473.975045,1907371.22886,0.41,0.040868261363,-0.0150733640445,0.858603983062,0.510785453179,3.42250008821,0.0,0.0,0.0,0.0,0.0,0.0,3.42250008821,0.0,0.0,0.0,0.0,0.0,0.0,13.6900003529,0.0,0.0,0.0,0.0,0.0,0.0,99999.0,0.0,0.0,0.0,0.0,0.0,0.0,99999.0,0.0,0.0,0.0,0.0,0.0,0.0,99999.0
829849297008,199,829849297008,local_origin,198473.852865,1907371.60725,0.41,0.0406583348483,-0.0149261930795,0.8586922313,0.510658164013,3.42250008821,0.0,0.0,0.0,0.0,0.0,0.0,3.42250008821,0.0,0.0,0.0,0.0,0.0,0.0,13.6900003529,0.0,0.0,0.0,0.0,0.0,0.0,99999.0,0.0,0.0,0.0,0.0,0.0,0.0,99999.0,0.0,0.0,0.0,0.0,0.0,0.0,99999.0
830050297008,200,830050297008,local_origin,198473.700384,1907372.09685,0.41,0.0407218480921,-0.0149499102653,0.858680760162,0.510671698255,3.42250008821,0.0,0.0,0.0,0.0,0.0,0.0,3.42250008821,0.0,0.0,0.0,0.0,0.0,0.0,13.6900003529,0.0,0.0,0.0,0.0,0.0,0.0,99999.0,0.0,0.0,0.0,0.0,0.0,0.0,99999.0,0.0,0.0,0.0,0.0,0.0,0.0,99999.0
830246297008,201,830246297008,local_origin,198473.486163,1907372.73135,0.41,0.0407831669,-0.0148619174414,0.858662900968,0.510699402005,3.42250008821,0.0,0.0,0.0,0.0,0.0,0.0,3.42250008821,0.0,0.0,0.0,0.0,0.0,0.0,13.6900003529,0.0,0.0,0.0,0.0,0.0,0.0,99999.0,0.0,0.0,0.0,0.0,0.0,0.0,99999.0,0.0,0.0,0.0,0.0,0.0,0.0,99999.0
830439297008,202,830439297008,local_origin,198473.220357,1907373.47737,0.4,0.0409239443433,-0.0148535160876,0.858657240336,0.510697902344,3.42250008821,0.0,0.0,0.0,0.0,0.0,0.0,3.42250008821,0.0,0.0,0.0,0.0,0.0,0.0,13.6900003529,0.0,0.0,0.0,0.0,0.0,0.0,99999.0,0.0,0.0,0.0,0.0,0.0,0.0,99999.0,0.0,0.0,0.0,0.0,0.0,0.0,99999.0
830439297008,203,830439297008,local_origin,198472.932617,1907374.1794,0.4,0.0408880237595,-0.0148882148466,0.858643216301,0.510723347491,3.42250008821,0.0,0.0,0.0,0.0,0.0,0.0,3.42250008821,0.0,0.0,0.0,0.0,0.0,0.0,13.6900003529,0.0,0.0,0.0,0.0,0.0,0.0,99999.0,0.0,0.0,0.0,0.0,0.0,0.0,99999.0,0.0,0.0,0.0,0.0,0.0,0.0,99999.0
830641297008,204,830641297008,local_origin,198472.540407,1907375.01588,0.4,0.0408143807333,-0.0148322754527,0.858559379901,0.510871785397,3.42250008821,0.0,0.0,0.0,0.0,0.0,0.0,3.42250008821,0.0,0.0,0.0,0.0,0.0,0.0,13.6900003529,0.0,0.0,0.0,0.0,0.0,0.0,99999.0,0.0,0.0,0.0,0.0,0.0,0.0,99999.0,0.0,0.0,0.0,0.0,0.0,0.0,99999.0
830855297008,205,830855297008,local_origin,198472.168181,1907375.76346,0.4,0.0408558155304,-0.0150648277298,0.858498346143,0.510964228663,3.42250008821,0.0,0.0,0.0,0.0,0.0,0.0,3.42250008821,0.0,0.0,0.0,0.0,0.0,0.0,13.6900003529,0.0,0.0,0.0,0.0,0.0,0.0,99999.0,0.0,0.0,0.0,0.0,0.0,0.0,99999.0,0.0,0.0,0.0,0.0,0.0,0.0,99999.0
830855297008,206,830855297008,local_origin,198471.70164,1907376.61211,0.39,0.040858166771,-0.0148567954377,0.858475503307,0.511008508794,3.42250008821,0.0,0.0,0.0,0.0,0.0,0.0,3.42250008821,0.0,0.0,0.0,0.0,0.0,0.0,13.6900003529,0.0,0.0,0.0,0.0,0.0,0.0,99999.0,0.0,0.0,0.0,0.0,0.0,0.0,99999.0,0.0,0.0,0.0,0.0,0.0,0.0,99999.0
831052297008,207,831052297008,local_origin,198471.244766,1907377.39416,0.4,0.0408573139616,-0.0151332339271,0.85843340372,0.511071185359,3.42250008821,0.0,0.0,0.0,0.0,0.0,0.0,3.42250008821,0.0,0.0,0.0,0.0,0.0,0.0,13.6900003529,0.0,0.0,0.0,0.0,0.0,0.0,99999.0,0.0,0.0,0.0,0.0,0.0,0.0,99999.0,0.0,0.0,0.0,0.0,0.0,0.0,99999.0
831250297008,208,831250297008,local_origin,198470.683746,1907378.33281,0.4,0.0410149487703,-0.014785557898,0.858573807743,0.510832827755,3.42250008821,0.0,0.0,0.0,0.0,0.0,0.0,3.42250008821,0.0,0.0,0.0,0.0,0.0,0.0,13.6900003529,0.0,0.0,0.0,0.0,0.0,0.0,99999.0,0.0,0.0,0.0,0.0,0.0,0.0,99999.0,0.0,0.0,0.0,0.0,0.0,0.0,99999.0
831454297008,209,831454297008,local_origin,198470.11176,1907379.24946,0.39,0.0406524640393,-0.0148216864259,0.858490806513,0.511000224962,3.42250008821,0.0,0.0,0.0,0.0,0.0,0.0,3.42250008821,0.0,0.0,0.0,0.0,0.0,0.0,13.6900003529,0.0,0.0,0.0,0.0,0.0,0.0,99999.0,0.0,0.0,0.0,0.0,0.0,0.0,99999.0,0.0,0.0,0.0,0.0,0.0,0.0,99999.0
831454297008,210,831454297008,local_origin,198469.445946,1907380.30041,0.37,0.0408221164365,-0.0147451745092,0.858551137699,0.510887540066,3.42250008821,0.0,0.0,0.0,0.0,0.0,0.0,3.42250008821,0.0,0.0,0.0,0.0,0.0,0.0,13.6900003529,0.0,0.0,0.0,0.0,0.0,0.0,99999.0,0.0,0.0,0.0,0.0,0.0,0.0,99999.0,0.0,0.0,0.0,0.0,0.0,0.0,99999.0
831651297008,211,831651297008,local_origin,198468.831717,1907381.23984,0.38,0.0406935805172,-0.0148547678899,0.858441749392,0.511078400323,3.42250008821,0.0,0.0,0.0,0.0,0.0,0.0,3.42250008821,0.0,0.0,0.0,0.0,0.0,0.0,13.6900003529,0.0,0.0,0.0,0.0,0.0,0.0,99999.0,0.0,0.0,0.0,0.0,0.0,0.0,99999.0,0.0,0.0,0.0,0.0,0.0,0.0,99999.0
831850297008,212,831850297008,local_origin,198468.217163,1907382.15712,0.39,0.0406427823109,-0.0146298596726,0.858555887498,0.510897171155,3.57209994593,0.0,0.0,0.0,0.0,0.0,0.0,3.57209994593,0.0,0.0,0.0,0.0,0.0,0.0,14.2883997837,0.0,0.0,0.0,0.0,0.0,0.0,99999.0,0.0,0.0,0.0,0.0,0.0,0.0,99999.0,0.0,0.0,0.0,0.0,0.0,0.0,99999.0
831850297008,213,831850297008,local_origin,198467.570845,1907383.08594,0.4,0.0409024109288,-0.0148184914444,0.858377688328,0.51117037206,3.57209994593,0.0,0.0,0.0,0.0,0.0,0.0,3.57209994593,0.0,0.0,0.0,0.0,0.0,0.0,14.2883997837,0.0,0.0,0.0,0.0,0.0,0.0,99999.0,0.0,0.0,0.0,0.0,0.0,0.0,99999.0,0.0,0.0,0.0,0.0,0.0,0.0,99999.0
832051297008,214,832051297008,local_origin,198467.028348,1907383.83602,0.4,0.0411618516488,-0.0148414372716,0.858372084469,0.511158290858,3.57209994593,0.0,0.0,0.0,0.0,0.0,0.0,3.57209994593,0.0,0.0,0.0,0.0,0.0,0.0,14.2883997837,0.0,0.0,0.0,0.0,0.0,0.0,99999.0,0.0,0.0,0.0,0.0,0.0,0.0,99999.0,0.0,0.0,0.0,0.0,0.0,0.0,99999.0
832247297008,215,832247297008,local_origin,198466.620947,1907384.36259,0.41,0.0408012360166,-0.0147403771496,0.858441398307,0.511073718845,3.57209994593,0.0,0.0,0.0,0.0,0.0,0.0,3.57209994593,0.0,0.0,0.0,0.0,0.0,0.0,14.2883997837,0.0,0.0,0.0,0.0,0.0,0.0,99999.0,0.0,0.0,0.0,0.0,0.0,0.0,99999.0,0.0,0.0,0.0,0.0,0.0,0.0,99999.0
832447297008,216,832447297008,local_origin,198466.20258,1907384.86717,0.4,0.0408500733584,-0.0147076559295,0.858510201351,0.510955174688,3.57209994593,0.0,0.0,0.0,0.0,0.0,0.0,3.57209994593,0.0,0.0,0.0,0.0,0.0,0.0,14.2883997837,0.0,0.0,0.0,0.0,0.0,0.0,99999.0,0.0,0.0,0.0,0.0,0.0,0.0,99999.0,0.0,0.0,0.0,0.0,0.0,0.0,99999.0
832447297008,217,832447297008,local_origin,198465.909316,1907385.19268,0.4,0.0407093113862,-0.0146609121417,0.858597286796,0.510821405902,3.57209994593,0.0,0.0,0.0,0.0,0.0,0.0,3.57209994593,0.0,0.0,0.0,0.0,0.0,0.0,14.2883997837,0.0,0.0,0.0,0.0,0.0,0.0,99999.0,0.0,0.0,0.0,0.0,0.0,0.0,99999.0,0.0,0.0,0.0,0.0,0.0,0.0,99999.0
832642297008,218,832642297008,local_origin,198465.72101,1907385.41697,0.4,0.040573632951,-0.0145172209663,0.858636477611,0.510770427805,3.57209994593,0.0,0.0,0.0,0.0,0.0,0.0,3.57209994593,0.0,0.0,0.0,0.0,0.0,0.0,14.2883997837,0.0,0.0,0.0,0.0,0.0,0.0,99999.0,0.0,0.0,0.0,0.0,0.0,0.0,99999.0,0.0,0.0,0.0,0.0,0.0,0.0,99999.0
832835297008,219,832835297008,local_origin,198465.5535,1907385.60773,0.4,0.0406032270124,-0.0147048208702,0.858642953491,0.510751822924,3.57209994593,0.0,0.0,0.0,0.0,0.0,0.0,3.57209994593,0.0,0.0,0.0,0.0,0.0,0.0,14.2883997837,0.0,0.0,0.0,0.0,0.0,0.0,99999.0,0.0,0.0,0.0,0.0,0.0,0.0,99999.0,0.0,0.0,0.0,0.0,0.0,0.0,99999.0
832835297008,220,832835297008,local_origin,198465.396308,1907385.77618,0.4,0.0408009558795,-0.0148510341333,0.858459444294,0.511040224724,3.57209994593,0.0,0.0,0.0,0.0,0.0,0.0,3.57209994593,0.0,0.0,0.0,0.0,0.0,0.0,14.2883997837,0.0,0.0,0.0,0.0,0.0,0.0,99999.0,0.0,0.0,0.0,0.0,0.0,0.0,99999.0,0.0,0.0,0.0,0.0,0.0,0.0,99999.0
833053297008,221,833053297008,local_origin,198465.291675,1907385.89956,0.4,0.0407682623358,-0.0148023019378,0.858489999071,0.510992917896,3.57209994593,0.0,0.0,0.0,0.0,0.0,0.0,3.57209994593,0.0,0.0,0.0,0.0,0.0,0.0,14.2883997837,0.0,0.0,0.0,0.0,0.0,0.0,99999.0,0.0,0.0,0.0,0.0,0.0,0.0,99999.0,0.0,0.0,0.0,0.0,0.0,0.0,99999.0
833250297008,222,833250297008,local_origin,198465.208002,1907386.00047,0.4,0.0408219804163,-0.0147432290348,0.858476895801,0.511012350622,3.57209994593,0.0,0.0,0.0,0.0,0.0,0.0,3.57209994593,0.0,0.0,0.0,0.0,0.0,0.0,14.2883997837,0.0,0.0,0.0,0.0,0.0,0.0,99999.0,0.0,0.0,0.0,0.0,0.0,0.0,99999.0,0.0,0.0,0.0,0.0,0.0,0.0,99999.0
833447297008,223,833447297008,local_origin,198465.124328,1907386.10139,0.4,0.0409395317024,-0.0148701444289,0.858567144799,0.510847620549,3.57209994593,0.0,0.0,0.0,0.0,0.0,0.0,3.57209994593,0.0,0.0,0.0,0.0,0.0,0.0,14.2883997837,0.0,0.0,0.0,0.0,0.0,0.0,99999.0,0.0,0.0,0.0,0.0,0.0,0.0,99999.0,0.0,0.0,0.0,0.0,0.0,0.0,99999.0
833447297008,224,833447297008,local_origin,198465.071931,1907386.15754,0.39,0.0407731102047,-0.014770962194,0.858572169902,0.510855362338,3.57209994593,0.0,0.0,0.0,0.0,0.0,0.0,3.57209994593,0.0,0.0,0.0,0.0,0.0,0.0,14.2883997837,0.0,0.0,0.0,0.0,0.0,0.0,99999.0,0.0,0.0,0.0,0.0,0.0,0.0,99999.0,0.0,0.0,0.0,0.0,0.0,0.0,99999.0
833647297008,225,833647297008,local_origin,198465.030175,1907386.21353,0.39,0.0405153193332,-0.0147071492995,0.858704344576,0.510655517217,3.57209994593,0.0,0.0,0.0,0.0,0.0,0.0,3.57209994593,0.0,0.0,0.0,0.0,0.0,0.0,14.2883997837,0.0,0.0,0.0,0.0,0.0,0.0,99999.0,0.0,0.0,0.0,0.0,0.0,0.0,99999.0,0.0,0.0,0.0,0.0,0.0,0.0,99999.0
833841297008,226,833841297008,local_origin,198464.998737,1907386.24722,0.38,0.0407749144502,-0.0148796268111,0.858734737862,0.510578743238,3.57209994593,0.0,0.0,0.0,0.0,0.0,0.0,3.57209994593,0.0,0.0,0.0,0.0,0.0,0.0,14.2883997837,0.0,0.0,0.0,0.0,0.0,0.0,99999.0,0.0,0.0,0.0,0.0,0.0,0.0,99999.0,0.0,0.0,0.0,0.0,0.0,0.0,99999.0
833841297008,227,833841297008,local_origin,198464.977778,1907386.26968,0.38,0.0408341305683,-0.0149311463956,0.85868516399,0.510655876096,3.57209994593,0.0,0.0,0.0,0.0,0.0,0.0,3.57209994593,0.0,0.0,0.0,0.0,0.0,0.0,14.2883997837,0.0,0.0,0.0,0.0,0.0,0.0,99999.0,0.0,0.0,0.0,0.0,0.0,0.0,99999.0,0.0,0.0,0.0,0.0,0.0,0.0,99999.0
834036297008,228,834036297008,local_origin,198464.967298,1907386.28091,0.38,0.0407564731869,-0.0148293548043,0.858683361737,0.510668076549,3.57209994593,0.0,0.0,0.0,0.0,0.0,0.0,3.57209994593,0.0,0.0,0.0,0.0,0.0,0.0,14.2883997837,0.0,0.0,0.0,0.0,0.0,0.0,99999.0,0.0,0.0,0.0,0.0,0.0,0.0,99999.0,0.0,0.0,0.0,0.0,0.0,0.0,99999.0
834254297008,229,834254297008,local_origin,198464.98842,1907386.26953,0.37,0.0409187822462,-0.0149339874053,0.858575958275,0.510832607762,3.57209994593,0.0,0.0,0.0,0.0,0.0,0.0,3.57209994593,0.0,0.0,0.0,0.0,0.0,0.0,14.2883997837,0.0,0.0,0.0,0.0,0.0,0.0,99999.0,0.0,0.0,0.0,0.0,0.0,0.0,99999.0,0.0,0.0,0.0,0.0,0.0,0.0,99999.0
834450297008,230,834450297008,local_origin,198465.009866,1907386.28029,0.37,0.0410794009945,-0.0151714182363,0.858690808461,0.51061962981,3.57209994593,0.0,0.0,0.0,0.0,0.0,0.0,3.57209994593,0.0,0.0,0.0,0.0,0.0,0.0,14.2883997837,0.0,0.0,0.0,0.0,0.0,0.0,99999.0,0.0,0.0,0.0,0.0,0.0,0.0,99999.0,0.0,0.0,0.0,0.0,0.0,0.0,99999.0
834450297008,231,834450297008,local_origin,198465.030825,1907386.25783,0.37,0.0406250214865,-0.0147614472727,0.858752187823,0.51056477279,3.57209994593,0.0,0.0,0.0,0.0,0.0,0.0,3.57209994593,0.0,0.0,0.0,0.0,0.0,0.0,14.2883997837,0.0,0.0,0.0,0.0,0.0,0.0,99999.0,0.0,0.0,0.0,0.0,0.0,0.0,99999.0,0.0,0.0,0.0,0.0,0.0,0.0,99999.0
834647297008,232,834647297008,local_origin,198465.062426,1907386.23521,0.37,0.0410296239608,-0.0152436221335,0.858562408472,0.510837344662,3.57209994593,0.0,0.0,0.0,0.0,0.0,0.0,3.57209994593,0.0,0.0,0.0,0.0,0.0,0.0,14.2883997837,0.0,0.0,0.0,0.0,0.0,0.0,99999.0,0.0,0.0,0.0,0.0,0.0,0.0,99999.0,0.0,0.0,0.0,0.0,0.0,0.0,99999.0
834843297008,233,834843297008,local_origin,198465.08306,1907386.1906,0.38,0.0407821966434,-0.0153379530403,0.858752309267,0.510535043813,3.57209994593,0.0,0.0,0.0,0.0,0.0,0.0,3.57209994593,0.0,0.0,0.0,0.0,0.0,0.0,14.2883997837,0.0,0.0,0.0,0.0,0.0,0.0,99999.0,0.0,0.0,0.0,0.0,0.0,0.0,99999.0,0.0,0.0,0.0,0.0,0.0,0.0,99999.0
834843297008,234,834843297008,local_origin,198465.114011,1907386.12369,0.37,0.0407105455844,-0.0147642981808,0.858576917799,0.510852565032,3.57209994593,0.0,0.0,0.0,0.0,0.0,0.0,3.57209994593,0.0,0.0,0.0,0.0,0.0,0.0,14.2883997837,0.0,0.0,0.0,0.0,0.0,0.0,99999.0,0.0,0.0,0.0,0.0,0.0,0.0,99999.0,0.0,0.0,0.0,0.0,0.0,0.0,99999.0
835039297008,235,835039297008,local_origin,198465.155279,1907386.03448,0.36,0.0407855988056,-0.0149733532516,0.858668073631,0.510687255518,3.57209994593,0.0,0.0,0.0,0.0,0.0,0.0,3.57209994593,0.0,0.0,0.0,0.0,0.0,0.0,14.2883997837,0.0,0.0,0.0,0.0,0.0,0.0,99999.0,0.0,0.0,0.0,0.0,0.0,0.0,99999.0,0.0,0.0,0.0,0.0,0.0,0.0,99999.0
835234297008,236,835234297008,local_origin,198465.217506,1907385.9228,0.36,0.0410070174062,-0.0148766889899,0.858464220795,0.5110149609,67.7328924652,0.0,0.0,0.0,0.0,0.0,0.0,67.7328924652,0.0,0.0,0.0,0.0,0.0,0.0,270.931569861,0.0,0.0,0.0,0.0,0.0,0.0,99999.0,0.0,0.0,0.0,0.0,0.0,0.0,99999.0,0.0,0.0,0.0,0.0,0.0,0.0,99999.0
835451297008,237,835451297008,local_origin,198465.321489,1907385.75513,0.36,0.0405908543863,-0.015125703788,0.858640296249,0.510744982631,67.7328924652,0.0,0.0,0.0,0.0,0.0,0.0,67.7328924652,0.0,0.0,0.0,0.0,0.0,0.0,270.931569861,0.0,0.0,0.0,0.0,0.0,0.0,99999.0,0.0,0.0,0.0,0.0,0.0,0.0,99999.0,0.0,0.0,0.0,0.0,0.0,0.0,99999.0
835451297008,238,835451297008,local_origin,198465.383716,1907385.64345,0.35,0.0408268989403,-0.0150566148308,0.8586084858,0.510781686031,67.7328924652,0.0,0.0,0.0,0.0,0.0,0.0,67.7328924652,0.0,0.0,0.0,0.0,0.0,0.0,270.931569861,0.0,0.0,0.0,0.0,0.0,0.0,99999.0,0.0,0.0,0.0,0.0,0.0,0.0,99999.0,0.0,0.0,0.0,0.0,0.0,0.0,99999.0
835628297008,239,835628297008,local_origin,198465.456748,1907385.54269,0.35,0.0407825536743,-0.0152913623848,0.858600688026,0.510791362567,67.7328924652,0.0,0.0,0.0,0.0,0.0,0.0,67.7328924652,0.0,0.0,0.0,0.0,0.0,0.0,270.931569861,0.0,0.0,0.0,0.0,0.0,0.0,99999.0,0.0,0.0,0.0,0.0,0.0,0.0,99999.0,0.0,0.0,0.0,0.0,0.0,0.0,99999.0
835842297008,240,835842297008,local_origin,198465.519462,1907385.46424,0.35,0.0409027507328,-0.0149526347298,0.858557132685,0.510864985699,67.7328924652,0.0,0.0,0.0,0.0,0.0,0.0,67.7328924652,0.0,0.0,0.0,0.0,0.0,0.0,270.931569861,0.0,0.0,0.0,0.0,0.0,0.0,99999.0,0.0,0.0,0.0,0.0,0.0,0.0,99999.0,0.0,0.0,0.0,0.0,0.0,0.0,99999.0
835842297008,241,835842297008,local_origin,198465.582339,1907385.39686,0.35,0.0407899146581,-0.0150040979668,0.858517055671,0.510939844824,67.7328924652,0.0,0.0,0.0,0.0,0.0,0.0,67.7328924652,0.0,0.0,0.0,0.0,0.0,0.0,270.931569861,0.0,0.0,0.0,0.0,0.0,0.0,99999.0,0.0,0.0,0.0,0.0,0.0,0.0,99999.0,0.0,0.0,0.0,0.0,0.0,0.0,99999.0
836056297008,242,836056297008,local_origin,198465.66585,1907385.28487,0.34,0.0410106350998,-0.0150386048634,0.858528792263,0.510901439642,3.57209994593,0.0,0.0,0.0,0.0,0.0,0.0,3.57209994593,0.0,0.0,0.0,0.0,0.0,0.0,14.2883997837,0.0,0.0,0.0,0.0,0.0,0.0,99999.0,0.0,0.0,0.0,0.0,0.0,0.0,99999.0,0.0,0.0,0.0,0.0,0.0,0.0,99999.0
836248297008,243,836248297008,local_origin,198465.77032,1907385.15042,0.33,0.0409731366174,-0.0150980426943,0.85835477876,0.511194997005,3.57209994593,0.0,0.0,0.0,0.0,0.0,0.0,3.57209994593,0.0,0.0,0.0,0.0,0.0,0.0,14.2883997837,0.0,0.0,0.0,0.0,0.0,0.0,99999.0,0.0,0.0,0.0,0.0,0.0,0.0,99999.0,0.0,0.0,0.0,0.0,0.0,0.0,99999.0
836248297008,244,836248297008,local_origin,198465.863661,1907384.9829,0.33,0.0408870992977,-0.014842165245,0.858446884492,0.511054695456,3.57209994593,0.0,0.0,0.0,0.0,0.0,0.0,3.57209994593,0.0,0.0,0.0,0.0,0.0,0.0,14.2883997837,0.0,0.0,0.0,0.0,0.0,0.0,99999.0,0.0,0.0,0.0,0.0,0.0,0.0,99999.0,0.0,0.0,0.0,0.0,0.0,0.0,99999.0
836445297008,245,836445297008,local_origin,198465.936368,1907384.85999,0.33,0.0409218061125,-0.0149344481009,0.858318396581,0.511264997955,3.57209994593,0.0,0.0,0.0,0.0,0.0,0.0,3.57209994593,0.0,0.0,0.0,0.0,0.0,0.0,14.2883997837,0.0,0.0,0.0,0.0,0.0,0.0,99999.0,0.0,0.0,0.0,0.0,0.0,0.0,99999.0,0.0,0.0,0.0,0.0,0.0,0.0,99999.0
836659297008,246,836659297008,local_origin,198466.029708,1907384.69248,0.33,0.0409232313206,-0.0148417424363,0.858479850617,0.510996436294,3.57209994593,0.0,0.0,0.0,0.0,0.0,0.0,3.57209994593,0.0,0.0,0.0,0.0,0.0,0.0,14.2883997837,0.0,0.0,0.0,0.0,0.0,0.0,99999.0,0.0,0.0,0.0,0.0,0.0,0.0,99999.0,0.0,0.0,0.0,0.0,0.0,0.0,99999.0
836858297008,247,836858297008,local_origin,198466.123049,1907384.52496,0.33,0.0408638015899,-0.0149763420329,0.858439570214,0.511064930503,3.57209994593,0.0,0.0,0.0,0.0,0.0,0.0,3.57209994593,0.0,0.0,0.0,0.0,0.0,0.0,14.2883997837,0.0,0.0,0.0,0.0,0.0,0.0,99999.0,0.0,0.0,0.0,0.0,0.0,0.0,99999.0,0.0,0.0,0.0,0.0,0.0,0.0,99999.0
836858297008,248,836858297008,local_origin,198466.279267,1907384.29007,0.33,0.0410894773115,-0.0150820232951,0.858620042203,0.510740453219,3.57209994593,0.0,0.0,0.0,0.0,0.0,0.0,3.57209994593,0.0,0.0,0.0,0.0,0.0,0.0,14.2883997837,0.0,0.0,0.0,0.0,0.0,0.0,99999.0,0.0,0.0,0.0,0.0,0.0,0.0,99999.0,0.0,0.0,0.0,0.0,0.0,0.0,99999.0
837055297008,249,837055297008,local_origin,198466.466598,1907383.99933,0.33,0.0405142806269,-0.01525221459,0.85893514913,0.510251283786,3.57209994593,0.0,0.0,0.0,0.0,0.0,0.0,3.57209994593,0.0,0.0,0.0,0.0,0.0,0.0,14.2883997837,0.0,0.0,0.0,0.0,0.0,0.0,99999.0,0.0,0.0,0.0,0.0,0.0,0.0,99999.0,0.0,0.0,0.0,0.0,0.0,0.0,99999.0
837254297008,250,837254297008,local_origin,198466.674563,1907383.66399,0.33,0.0405641958582,-0.0144439774557,0.858688073462,0.510686508558,3.57209994593,0.0,0.0,0.0,0.0,0.0,0.0,3.57209994593,0.0,0.0,0.0,0.0,0.0,0.0,14.2883997837,0.0,0.0,0.0,0.0,0.0,0.0,99999.0,0.0,0.0,0.0,0.0,0.0,0.0,99999.0,0.0,0.0,0.0,0.0,0.0,0.0,99999.0
837254297008,251,837254297008,local_origin,198466.851415,1907383.38449,0.32,0.0410749445837,-0.0153035048407,0.858739069077,0.510534879227,3.57209994593,0.0,0.0,0.0,0.0,0.0,0.0,3.57209994593,0.0,0.0,0.0,0.0,0.0,0.0,14.2883997837,0.0,0.0,0.0,0.0,0.0,0.0,99999.0,0.0,0.0,0.0,0.0,0.0,0.0,99999.0,0.0,0.0,0.0,0.0,0.0,0.0,99999.0
837451297008,252,837451297008,local_origin,198467.028104,1907383.09391,0.33,0.0408255741834,-0.0150648493193,0.858603892064,0.510789270971,3.57209994593,0.0,0.0,0.0,0.0,0.0,0.0,3.57209994593,0.0,0.0,0.0,0.0,0.0,0.0,14.2883997837,0.0,0.0,0.0,0.0,0.0,0.0,99999.0,0.0,0.0,0.0,0.0,0.0,0.0,99999.0,0.0,0.0,0.0,0.0,0.0,0.0,99999.0
837645297008,253,837645297008,local_origin,198467.214623,1907382.7478,0.33,0.0405295888188,-0.0153931337638,0.858805446874,0.51046411067,3.57209994593,0.0,0.0,0.0,0.0,0.0,0.0,3.57209994593,0.0,0.0,0.0,0.0,0.0,0.0,14.2883997837,0.0,0.0,0.0,0.0,0.0,0.0,99999.0,0.0,0.0,0.0,0.0,0.0,0.0,99999.0,0.0,0.0,0.0,0.0,0.0,0.0,99999.0
837858297008,254,837858297008,local_origin,198467.370191,1907382.46861,0.33,0.0411794433326,-0.0152842564463,0.858854110875,0.510333480369,3.42250008821,0.0,0.0,0.0,0.0,0.0,0.0,3.42250008821,0.0,0.0,0.0,0.0,0.0,0.0,13.6900003529,0.0,0.0,0.0,0.0,0.0,0.0,99999.0,0.0,0.0,0.0,0.0,0.0,0.0,99999.0,0.0,0.0,0.0,0.0,0.0,0.0,99999.0
837858297008,255,837858297008,local_origin,198467.524947,1907382.13405,0.33,0.0408884451453,-0.0153892543839,0.858930784156,0.510224670055,3.42250008821,0.0,0.0,0.0,0.0,0.0,0.0,3.42250008821,0.0,0.0,0.0,0.0,0.0,0.0,13.6900003529,0.0,0.0,0.0,0.0,0.0,0.0,99999.0,0.0,0.0,0.0,0.0,0.0,0.0,99999.0,0.0,0.0,0.0,0.0,0.0,0.0,99999.0
