%time,field.header.seq,field.header.stamp,field.header.frame_id,field.pose.pose.position.x,field.pose.pose.position.y,field.pose.pose.position.z,field.pose.pose.orientation.x,field.pose.pose.orientation.y,field.pose.pose.orientation.z,field.pose.pose.orientation.w,field.pose.covariance0,field.pose.covariance1,field.pose.covariance2,field.pose.covariance3,field.pose.covariance4,field.pose.covariance5,field.pose.covariance6,field.pose.covariance7,field.pose.covariance8,field.pose.covariance9,field.pose.covariance10,field.pose.covariance11,field.pose.covariance12,field.pose.covariance13,field.pose.covariance14,field.pose.covariance15,field.pose.covariance16,field.pose.covariance17,field.pose.covariance18,field.pose.covariance19,field.pose.covariance20,field.pose.covariance21,field.pose.covariance22,field.pose.covariance23,field.pose.covariance24,field.pose.covariance25,field.pose.covariance26,field.pose.covariance27,field.pose.covariance28,field.pose.covariance29,field.pose.covariance30,field.pose.covariance31,field.pose.covariance32,field.pose.covariance33,field.pose.covariance34,field.pose.covariance35
932864297008,910,932864297008,local_origin,198468.20977,1907373.67272,13.94,0.000961298631921,-0.00115324297935,0.861515369797,0.507729271895,1.98809990587,0.0,0.0,0.0,0.0,0.0,0.0,1.98809990587,0.0,0.0,0.0,0.0,0.0,0.0,7.95239962349,0.0,0.0,0.0,0.0,0.0,0.0,99999.0,0.0,0.0,0.0,0.0,0.0,0.0,99999.0,0.0,0.0,0.0,0.0,0.0,0.0,99999.0
933072297008,911,933072297008,local_origin,198467.9542,1907373.66539,14.71,-0.00270403312621,3.93180630709e-06,0.863316095735,0.504656325665,1.68999987602,0.0,0.0,0.0,0.0,0.0,0.0,1.68999987602,0.0,0.0,0.0,0.0,0.0,0.0,6.75999950409,0.0,0.0,0.0,0.0,0.0,0.0,99999.0,0.0,0.0,0.0,0.0,0.0,0.0,99999.0,0.0,0.0,0.0,0.0,0.0,0.0,99999.0
933264297008,912,933264297008,local_origin,198467.752165,1907373.67943,15.29,-0.00152064398896,-0.00118745363747,0.865341772033,0.501178506294,1.68999987602,0.0,0.0,0.0,0.0,0.0,0.0,1.68999987602,0.0,0.0,0.0,0.0,0.0,0.0,6.75999950409,0.0,0.0,0.0,0.0,0.0,0.0,99999.0,0.0,0.0,0.0,0.0,0.0,0.0,99999.0,0.0,0.0,0.0,0.0,0.0,0.0,99999.0
933264297008,913,933264297008,local_origin,198467.561096,1907373.71546,15.88,0.00110847142907,0.0014694266701,0.867039577892,0.498235870291,1.68999987602,0.0,0.0,0.0,0.0,0.0,0.0,1.68999987602,0.0,0.0,0.0,0.0,0.0,0.0,6.75999950409,0.0,0.0,0.0,0.0,0.0,0.0,99999.0,0.0,0.0,0.0,0.0,0.0,0.0,99999.0,0.0,0.0,0.0,0.0,0.0,0.0,99999.0
933470297008,914,933470297008,local_origin,198467.380995,1907373.77349,16.45,0.00241221160913,0.00851625589642,0.868126907882,0.496263363983,1.68999987602,0.0,0.0,0.0,0.0,0.0,0.0,1.68999987602,0.0,0.0,0.0,0.0,0.0,0.0,6.75999950409,0.0,0.0,0.0,0.0,0.0,0.0,99999.0,0.0,0.0,0.0,0.0,0.0,0.0,99999.0,0.0,0.0,0.0,0.0,0.0,0.0,99999.0
933470297008,915,933470297008,local_origin,198467.243462,1907373.83089,16.93,0.000180793543831,0.00800644080256,0.869130630454,0.494517756432,1.68999987602,0.0,0.0,0.0,0.0,0.0,0.0,1.68999987602,0.0,0.0,0.0,0.0,0.0,0.0,6.75999950409,0.0,0.0,0.0,0.0,0.0,0.0,99999.0,0.0,0.0,0.0,0.0,0.0,0.0,99999.0,0.0,0.0,0.0,0.0,0.0,0.0,99999.0
933677297008,916,933677297008,local_origin,198467.052556,1907373.87799,17.49,-0.00168610549761,-0.000901427072399,0.870129757524,0.492818982538,1.68999987602,0.0,0.0,0.0,0.0,0.0,0.0,1.68999987602,0.0,0.0,0.0,0.0,0.0,0.0,6.75999950409,0.0,0.0,0.0,0.0,0.0,0.0,99999.0,0.0,0.0,0.0,0.0,0.0,0.0,99999.0,0.0,0.0,0.0,0.0,0.0,0.0,99999.0
933867297008,917,933867297008,local_origin,198466.850846,1907373.91418,18.04,-0.000480479345593,-0.00313487817584,0.870619211727,0.491947283609,1.90439998684,0.0,0.0,0.0,0.0,0.0,0.0,1.90439998684,0.0,0.0,0.0,0.0,0.0,0.0,7.61759994736,0.0,0.0,0.0,0.0,0.0,0.0,99999.0,0.0,0.0,0.0,0.0,0.0,0.0,99999.0,0.0,0.0,0.0,0.0,0.0,0.0,99999.0
934055297008,918,934055297008,local_origin,198466.691541,1907373.93867,18.5,-0.00152566570914,-0.00261987751738,0.870625510023,0.491937018207,1.90439998684,0.0,0.0,0.0,0.0,0.0,0.0,1.90439998684,0.0,0.0,0.0,0.0,0.0,0.0,7.61759994736,0.0,0.0,0.0,0.0,0.0,0.0,99999.0,0.0,0.0,0.0,0.0,0.0,0.0,99999.0,0.0,0.0,0.0,0.0,0.0,0.0,99999.0
934055297008,919,934055297008,local_origin,198466.500148,1907373.95256,19.04,-0.00325359913506,-0.00205641795487,0.870230740087,0.492629317282,1.90439998684,0.0,0.0,0.0,0.0,0.0,0.0,1.90439998684,0.0,0.0,0.0,0.0,0.0,0.0,7.61759994736,0.0,0.0,0.0,0.0,0.0,0.0,99999.0,0.0,0.0,0.0,0.0,0.0,0.0,99999.0,0.0,0.0,0.0,0.0,0.0,0.0,99999.0
934263297008,920,934263297008,local_origin,198466.319234,1907373.95521,19.6,-0.00464332361893,-0.00388172036506,0.869575999766,0.493762040282,1.90439998684,0.0,0.0,0.0,0.0,0.0,0.0,1.90439998684,0.0,0.0,0.0,0.0,0.0,0.0,7.61759994736,0.0,0.0,0.0,0.0,0.0,0.0,99999.0,0.0,0.0,0.0,0.0,0.0,0.0,99999.0,0.0,0.0,0.0,0.0,0.0,0.0,99999.0
934474297008,921,934474297008,local_origin,198466.1488,1907373.94664,20.08,-0.00464332361893,-0.00388172036506,0.869575999766,0.493762040282,1.90439998684,0.0,0.0,0.0,0.0,0.0,0.0,1.90439998684,0.0,0.0,0.0,0.0,0.0,0.0,7.61759994736,0.0,0.0,0.0,0.0,0.0,0.0,99999.0,0.0,0.0,0.0,0.0,0.0,0.0,99999.0,0.0,0.0,0.0,0.0,0.0,0.0,99999.0
934474297008,922,934474297008,local_origin,198465.988683,1907373.91576,20.56,-0.00255673418433,-0.00231963603902,0.868588304568,0.49552239058,1.68999987602,0.0,0.0,0.0,0.0,0.0,0.0,1.68999987602,0.0,0.0,0.0,0.0,0.0,0.0,6.75999950409,0.0,0.0,0.0,0.0,0.0,0.0,99999.0,0.0,0.0,0.0,0.0,0.0,0.0,99999.0,0.0,0.0,0.0,0.0,0.0,0.0,99999.0
934661297008,923,934661297008,local_origin,198465.796314,1907373.8632,21.03,0.000295583305357,0.00431860189497,0.867418527033,0.497560409667,1.68999987602,0.0,0.0,0.0,0.0,0.0,0.0,1.68999987602,0.0,0.0,0.0,0.0,0.0,0.0,6.75999950409,0.0,0.0,0.0,0.0,0.0,0.0,99999.0,0.0,0.0,0.0,0.0,0.0,0.0,99999.0,0.0,0.0,0.0,0.0,0.0,0.0,99999.0
934870297008,924,934870297008,local_origin,198465.561216,1907373.80019,21.7,0.00114693632267,0.0134915643899,0.865877320982,0.50007312189,1.68999987602,0.0,0.0,0.0,0.0,0.0,0.0,1.68999987602,0.0,0.0,0.0,0.0,0.0,0.0,6.75999950409,0.0,0.0,0.0,0.0,0.0,0.0,99999.0,0.0,0.0,0.0,0.0,0.0,0.0,99999.0,0.0,0.0,0.0,0.0,0.0,0.0,99999.0
935057297008,925,935057297008,local_origin,198465.347401,1907373.73687,22.29,0.00525855261318,0.0217085455218,0.863716286413,0.503483131058,1.68999987602,0.0,0.0,0.0,0.0,0.0,0.0,1.68999987602,0.0,0.0,0.0,0.0,0.0,0.0,6.75999950409,0.0,0.0,0.0,0.0,0.0,0.0,99999.0,0.0,0.0,0.0,0.0,0.0,0.0,99999.0,0.0,0.0,0.0,0.0,0.0,0.0,99999.0
935057297008,926,935057297008,local_origin,198465.133424,1907373.66247,22.9,0.00427134455346,0.0225131250728,0.861602066759,0.507066852962,1.68999987602,0.0,0.0,0.0,0.0,0.0,0.0,1.68999987602,0.0,0.0,0.0,0.0,0.0,0.0,6.75999950409,0.0,0.0,0.0,0.0,0.0,0.0,99999.0,0.0,0.0,0.0,0.0,0.0,0.0,99999.0,0.0,0.0,0.0,0.0,0.0,0.0,99999.0
935265297008,927,935265297008,local_origin,198464.929927,1907373.57685,23.51,-0.00257995885069,0.0141238723462,0.859984341838,0.510118409622,1.68999987602,0.0,0.0,0.0,0.0,0.0,0.0,1.68999987602,0.0,0.0,0.0,0.0,0.0,0.0,6.75999950409,0.0,0.0,0.0,0.0,0.0,0.0,99999.0,0.0,0.0,0.0,0.0,0.0,0.0,99999.0,0.0,0.0,0.0,0.0,0.0,0.0,99999.0
935476297008,928,935476297008,local_origin,198464.75868,1907373.5129,24.06,-0.00574228545009,0.00916268300941,0.858295146757,0.513042408044,1.68999987602,0.0,0.0,0.0,0.0,0.0,0.0,1.68999987602,0.0,0.0,0.0,0.0,0.0,0.0,6.75999950409,0.0,0.0,0.0,0.0,0.0,0.0,99999.0,0.0,0.0,0.0,0.0,0.0,0.0,99999.0,0.0,0.0,0.0,0.0,0.0,0.0,99999.0
935476297008,929,935476297008,local_origin,198464.576467,1907373.42696,24.7,-0.0068659903267,0.00895662623417,0.856660650239,0.515756887841,1.68999987602,0.0,0.0,0.0,0.0,0.0,0.0,1.68999987602,0.0,0.0,0.0,0.0,0.0,0.0,6.75999950409,0.0,0.0,0.0,0.0,0.0,0.0,99999.0,0.0,0.0,0.0,0.0,0.0,0.0,99999.0,0.0,0.0,0.0,0.0,0.0,0.0,99999.0
935665297008,930,935665297008,local_origin,198464.394253,1907373.34102,25.25,-0.00679518653124,0.00921184828914,0.854855661144,0.518739593536,1.68999987602,0.0,0.0,0.0,0.0,0.0,0.0,1.68999987602,0.0,0.0,0.0,0.0,0.0,0.0,6.75999950409,0.0,0.0,0.0,0.0,0.0,0.0,99999.0,0.0,0.0,0.0,0.0,0.0,0.0,99999.0,0.0,0.0,0.0,0.0,0.0,0.0,99999.0
935872297008,931,935872297008,local_origin,198464.21204,1907373.25509,25.8,-0.00543763545523,0.0084463349033,0.85262942891,0.522419513901,1.68999987602,0.0,0.0,0.0,0.0,0.0,0.0,1.68999987602,0.0,0.0,0.0,0.0,0.0,0.0,6.75999950409,0.0,0.0,0.0,0.0,0.0,0.0,99999.0,0.0,0.0,0.0,0.0,0.0,0.0,99999.0,0.0,0.0,0.0,0.0,0.0,0.0,99999.0
935872297008,932,935872297008,local_origin,198463.944041,1907373.1261,26.45,-0.00455290052164,0.00649588131919,0.85100159304,0.525103192969,1.68999987602,0.0,0.0,0.0,0.0,0.0,0.0,1.68999987602,0.0,0.0,0.0,0.0,0.0,0.0,6.75999950409,0.0,0.0,0.0,0.0,0.0,0.0,99999.0,0.0,0.0,0.0,0.0,0.0,0.0,99999.0,0.0,0.0,0.0,0.0,0.0,0.0,99999.0
936081297008,933,936081297008,local_origin,198463.60106,1907372.96499,27.21,-0.00187174193029,0.00586566168291,0.848718154877,0.528809591608,1.68999987602,0.0,0.0,0.0,0.0,0.0,0.0,1.68999987602,0.0,0.0,0.0,0.0,0.0,0.0,6.75999950409,0.0,0.0,0.0,0.0,0.0,0.0,99999.0,0.0,0.0,0.0,0.0,0.0,0.0,99999.0,0.0,0.0,0.0,0.0,0.0,0.0,99999.0
936269297008,934,936269297008,local_origin,198463.311939,1907372.84739,27.87,0.00343806133431,0.00318751957758,0.847679162305,0.53048850812,1.68999987602,0.0,0.0,0.0,0.0,0.0,0.0,1.68999987602,0.0,0.0,0.0,0.0,0.0,0.0,6.75999950409,0.0,0.0,0.0,0.0,0.0,0.0,99999.0,0.0,0.0,0.0,0.0,0.0,0.0,99999.0,0.0,0.0,0.0,0.0,0.0,0.0,99999.0
936478297008,935,936478297008,local_origin,198463.054907,1907372.7404,28.43,0.0101584104858,0.00403668137624,0.847863249736,0.530102274705,1.68999987602,0.0,0.0,0.0,0.0,0.0,0.0,1.68999987602,0.0,0.0,0.0,0.0,0.0,0.0,6.75999950409,0.0,0.0,0.0,0.0,0.0,0.0,99999.0,0.0,0.0,0.0,0.0,0.0,0.0,99999.0,0.0,0.0,0.0,0.0,0.0,0.0,99999.0
936478297008,936,936478297008,local_origin,198462.798037,1907372.64448,29.01,0.00562447515765,-0.00297710475638,0.849168514622,0.528083644796,1.68999987602,0.0,0.0,0.0,0.0,0.0,0.0,1.68999987602,0.0,0.0,0.0,0.0,0.0,0.0,6.75999950409,0.0,0.0,0.0,0.0,0.0,0.0,99999.0,0.0,0.0,0.0,0.0,0.0,0.0,99999.0,0.0,0.0,0.0,0.0,0.0,0.0,99999.0
936687297008,937,936687297008,local_origin,198462.455219,1907372.49444,29.76,-0.010658017676,-0.0199059352898,0.851493702461,0.52387845448,1.68999987602,0.0,0.0,0.0,0.0,0.0,0.0,1.68999987602,0.0,0.0,0.0,0.0,0.0,0.0,6.75999950409,0.0,0.0,0.0,0.0,0.0,0.0,99999.0,0.0,0.0,0.0,0.0,0.0,0.0,99999.0,0.0,0.0,0.0,0.0,0.0,0.0,99999.0
936874297008,938,936874297008,local_origin,198462.187544,1907372.3876,30.31,-0.0145311670896,-0.0277001763267,0.8535908321,0.5200040738,1.68999987602,0.0,0.0,0.0,0.0,0.0,0.0,1.68999987602,0.0,0.0,0.0,0.0,0.0,0.0,6.75999950409,0.0,0.0,0.0,0.0,0.0,0.0,99999.0,0.0,0.0,0.0,0.0,0.0,0.0,99999.0,0.0,0.0,0.0,0.0,0.0,0.0,99999.0
936874297008,939,936874297008,local_origin,198461.930349,1907372.26954,30.86,-0.0115979671226,-0.0272917546213,0.855162284345,0.517511463373,1.68999987602,0.0,0.0,0.0,0.0,0.0,0.0,1.68999987602,0.0,0.0,0.0,0.0,0.0,0.0,6.75999950409,0.0,0.0,0.0,0.0,0.0,0.0,99999.0,0.0,0.0,0.0,0.0,0.0,0.0,99999.0,0.0,0.0,0.0,0.0,0.0,0.0,99999.0
937080297008,940,937080297008,local_origin,198461.651871,1907372.15178,31.43,-0.0136074724485,-0.0279558359104,0.856652299208,0.514956450774,1.68999987602,0.0,0.0,0.0,0.0,0.0,0.0,1.68999987602,0.0,0.0,0.0,0.0,0.0,0.0,6.75999950409,0.0,0.0,0.0,0.0,0.0,0.0,99999.0,0.0,0.0,0.0,0.0,0.0,0.0,99999.0,0.0,0.0,0.0,0.0,0.0,0.0,99999.0
937290297008,941,937290297008,local_origin,198461.298086,1907371.97975,32.19,-0.0143143275784,-0.0239655139451,0.858266317767,0.51244480869,1.68999987602,0.0,0.0,0.0,0.0,0.0,0.0,1.68999987602,0.0,0.0,0.0,0.0,0.0,0.0,6.75999950409,0.0,0.0,0.0,0.0,0.0,0.0,99999.0,0.0,0.0,0.0,0.0,0.0,0.0,99999.0,0.0,0.0,0.0,0.0,0.0,0.0,99999.0
937290297008,942,937290297008,local_origin,198461.040728,1907371.85061,32.74,-0.0138357489624,-0.0258859731273,0.85978511309,0.509811776791,1.68999987602,0.0,0.0,0.0,0.0,0.0,0.0,1.68999987602,0.0,0.0,0.0,0.0,0.0,0.0,6.75999950409,0.0,0.0,0.0,0.0,0.0,0.0,99999.0,0.0,0.0,0.0,0.0,0.0,0.0,99999.0,0.0,0.0,0.0,0.0,0.0,0.0,99999.0
937479297008,943,937479297008,local_origin,198460.783371,1907371.72147,33.3,-0.00168069168347,-0.0287165818655,0.86074797818,0.5082179171,1.68999987602,0.0,0.0,0.0,0.0,0.0,0.0,1.68999987602,0.0,0.0,0.0,0.0,0.0,0.0,6.75999950409,0.0,0.0,0.0,0.0,0.0,0.0,99999.0,0.0,0.0,0.0,0.0,0.0,0.0,99999.0,0.0,0.0,0.0,0.0,0.0,0.0,99999.0
937683297008,944,937683297008,local_origin,198460.526013,1907371.59233,33.94,0.00768357237295,-0.0224055460464,0.861357299706,0.507447097209,1.68999987602,0.0,0.0,0.0,0.0,0.0,0.0,1.68999987602,0.0,0.0,0.0,0.0,0.0,0.0,6.75999950409,0.0,0.0,0.0,0.0,0.0,0.0,99999.0,0.0,0.0,0.0,0.0,0.0,0.0,99999.0,0.0,0.0,0.0,0.0,0.0,0.0,99999.0
937683297008,945,937683297008,local_origin,198460.24721,1907371.45242,34.57,0.00539760827875,-0.022600163774,0.862007957491,0.506361905799,1.68999987602,0.0,0.0,0.0,0.0,0.0,0.0,1.68999987602,0.0,0.0,0.0,0.0,0.0,0.0,6.75999950409,0.0,0.0,0.0,0.0,0.0,0.0,99999.0,0.0,0.0,0.0,0.0,0.0,0.0,99999.0,0.0,0.0,0.0,0.0,0.0,0.0,99999.0
937891297008,946,937891297008,local_origin,198459.968081,1907371.29037,35.19,0.00565698798689,-0.0201214337234,0.862624827358,0.505412241261,1.68999987602,0.0,0.0,0.0,0.0,0.0,0.0,1.68999987602,0.0,0.0,0.0,0.0,0.0,0.0,6.75999950409,0.0,0.0,0.0,0.0,0.0,0.0,99999.0,0.0,0.0,0.0,0.0,0.0,0.0,99999.0,0.0,0.0,0.0,0.0,0.0,0.0,99999.0
938078297008,947,938078297008,local_origin,198459.699594,1907371.12817,35.72,0.00722598587929,-0.0199940587562,0.862869590687,0.504979298793,1.68999987602,0.0,0.0,0.0,0.0,0.0,0.0,1.68999987602,0.0,0.0,0.0,0.0,0.0,0.0,6.75999950409,0.0,0.0,0.0,0.0,0.0,0.0,99999.0,0.0,0.0,0.0,0.0,0.0,0.0,99999.0,0.0,0.0,0.0,0.0,0.0,0.0,99999.0
938078297008,948,938078297008,local_origin,198459.441749,1907370.9658,36.32,0.00921916785446,-0.0179356978324,0.862974820087,0.504844310241,1.68999987602,0.0,0.0,0.0,0.0,0.0,0.0,1.68999987602,0.0,0.0,0.0,0.0,0.0,0.0,6.75999950409,0.0,0.0,0.0,0.0,0.0,0.0,99999.0,0.0,0.0,0.0,0.0,0.0,0.0,99999.0,0.0,0.0,0.0,0.0,0.0,0.0,99999.0
938286297008,949,938286297008,local_origin,198459.183742,1907370.79237,36.91,0.00611514117666,-0.0164203790984,0.862378001925,0.505961617115,1.68999987602,0.0,0.0,0.0,0.0,0.0,0.0,1.68999987602,0.0,0.0,0.0,0.0,0.0,0.0,6.75999950409,0.0,0.0,0.0,0.0,0.0,0.0,99999.0,0.0,0.0,0.0,0.0,0.0,0.0,99999.0,0.0,0.0,0.0,0.0,0.0,0.0,99999.0
938475297008,950,938475297008,local_origin,198458.903963,1907370.58602,37.56,0.00123763166764,-0.0169249815058,0.861484998211,0.507499370567,1.68999987602,0.0,0.0,0.0,0.0,0.0,0.0,1.68999987602,0.0,0.0,0.0,0.0,0.0,0.0,6.75999950409,0.0,0.0,0.0,0.0,0.0,0.0,99999.0,0.0,0.0,0.0,0.0,0.0,0.0,99999.0,0.0,0.0,0.0,0.0,0.0,0.0,99999.0
938681297008,951,938681297008,local_origin,198458.624185,1907370.37968,38.29,0.000759215683901,-0.018158101533,0.86070724179,0.508775737306,1.68999987602,0.0,0.0,0.0,0.0,0.0,0.0,1.68999987602,0.0,0.0,0.0,0.0,0.0,0.0,6.75999950409,0.0,0.0,0.0,0.0,0.0,0.0,99999.0,0.0,0.0,0.0,0.0,0.0,0.0,99999.0,0.0,0.0,0.0,0.0,0.0,0.0,99999.0
938681297008,952,938681297008,local_origin,198458.451963,1907370.24929,38.71,0.000759215683901,-0.018158101533,0.86070724179,0.508775737306,1.68999987602,0.0,0.0,0.0,0.0,0.0,0.0,1.68999987602,0.0,0.0,0.0,0.0,0.0,0.0,6.75999950409,0.0,0.0,0.0,0.0,0.0,0.0,99999.0,0.0,0.0,0.0,0.0,0.0,0.0,99999.0,0.0,0.0,0.0,0.0,0.0,0.0,99999.0
938888297008,953,938888297008,local_origin,198458.182826,1907370.04278,39.3,0.00723634508501,-0.0107710412866,0.860216883629,0.509763212776,1.68999987602,0.0,0.0,0.0,0.0,0.0,0.0,1.68999987602,0.0,0.0,0.0,0.0,0.0,0.0,6.75999950409,0.0,0.0,0.0,0.0,0.0,0.0,99999.0,0.0,0.0,0.0,0.0,0.0,0.0,99999.0,0.0,0.0,0.0,0.0,0.0,0.0,99999.0
939075297008,954,939075297008,local_origin,198457.967874,1907369.90194,39.9,0.0144815915982,0.00125220285921,0.859882985141,0.510284202537,1.68999987602,0.0,0.0,0.0,0.0,0.0,0.0,1.68999987602,0.0,0.0,0.0,0.0,0.0,0.0,6.75999950409,0.0,0.0,0.0,0.0,0.0,0.0,99999.0,0.0,0.0,0.0,0.0,0.0,0.0,99999.0,0.0,0.0,0.0,0.0,0.0,0.0,99999.0
939075297008,955,939075297008,local_origin,198457.753085,1907369.77218,40.32,0.0121771686272,-0.0100324854604,0.860036225232,0.509988977419,1.68999987602,0.0,0.0,0.0,0.0,0.0,0.0,1.68999987602,0.0,0.0,0.0,0.0,0.0,0.0,6.75999950409,0.0,0.0,0.0,0.0,0.0,0.0,99999.0,0.0,0.0,0.0,0.0,0.0,0.0,99999.0,0.0,0.0,0.0,0.0,0.0,0.0,99999.0
939282297008,956,939282297008,local_origin,198457.506045,1907369.62073,40.92,0.0121761372849,-0.0136591510319,0.860276272684,0.509499660383,1.68999987602,0.0,0.0,0.0,0.0,0.0,0.0,1.68999987602,0.0,0.0,0.0,0.0,0.0,0.0,6.75999950409,0.0,0.0,0.0,0.0,0.0,0.0,99999.0,0.0,0.0,0.0,0.0,0.0,0.0,99999.0,0.0,0.0,0.0,0.0,0.0,0.0,99999.0
939468297008,957,939468297008,local_origin,198457.269971,1907369.49128,41.52,0.00549706728168,-0.00548906764916,0.861158183962,0.508277714034,1.68999987602,0.0,0.0,0.0,0.0,0.0,0.0,1.68999987602,0.0,0.0,0.0,0.0,0.0,0.0,6.75999950409,0.0,0.0,0.0,0.0,0.0,0.0,99999.0,0.0,0.0,0.0,0.0,0.0,0.0,99999.0,0.0,0.0,0.0,0.0,0.0,0.0,99999.0
939692297008,958,939692297008,local_origin,198457.023093,1907369.35091,42.17,0.00613991257662,-0.0128492894459,0.861991644893,0.506722410565,1.68999987602,0.0,0.0,0.0,0.0,0.0,0.0,1.68999987602,0.0,0.0,0.0,0.0,0.0,0.0,6.75999950409,0.0,0.0,0.0,0.0,0.0,0.0,99999.0,0.0,0.0,0.0,0.0,0.0,0.0,99999.0,0.0,0.0,0.0,0.0,0.0,0.0,99999.0
939692297008,959,939692297008,local_origin,198456.819433,1907369.25421,42.63,0.00405779909896,-0.0253599728225,0.862836895744,0.504829572617,1.68999987602,0.0,0.0,0.0,0.0,0.0,0.0,1.68999987602,0.0,0.0,0.0,0.0,0.0,0.0,6.75999950409,0.0,0.0,0.0,0.0,0.0,0.0,99999.0,0.0,0.0,0.0,0.0,0.0,0.0,99999.0,0.0,0.0,0.0,0.0,0.0,0.0,99999.0
939880297008,960,939880297008,local_origin,198456.475965,1907369.05987,43.31,-0.0193077684258,-0.0487115057221,0.863040294053,0.502410041829,1.68999987602,0.0,0.0,0.0,0.0,0.0,0.0,1.68999987602,0.0,0.0,0.0,0.0,0.0,0.0,6.75999950409,0.0,0.0,0.0,0.0,0.0,0.0,99999.0,0.0,0.0,0.0,0.0,0.0,0.0,99999.0,0.0,0.0,0.0,0.0,0.0,0.0,99999.0
940091297008,961,940091297008,local_origin,198456.239567,1907368.90827,43.8,-0.0275690112189,-0.0612872491787,0.863333868384,0.500138435245,1.68999987602,0.0,0.0,0.0,0.0,0.0,0.0,1.68999987602,0.0,0.0,0.0,0.0,0.0,0.0,6.75999950409,0.0,0.0,0.0,0.0,0.0,0.0,99999.0,0.0,0.0,0.0,0.0,0.0,0.0,99999.0,0.0,0.0,0.0,0.0,0.0,0.0,99999.0
940281297008,962,940281297008,local_origin,198456.045899,1907368.76712,44.25,-0.0237505746409,-0.0595237000448,0.864578225055,0.498394755287,1.68999987602,0.0,0.0,0.0,0.0,0.0,0.0,1.68999987602,0.0,0.0,0.0,0.0,0.0,0.0,6.75999950409,0.0,0.0,0.0,0.0,0.0,0.0,99999.0,0.0,0.0,0.0,0.0,0.0,0.0,99999.0,0.0,0.0,0.0,0.0,0.0,0.0,99999.0
940281297008,963,940281297008,local_origin,198455.841101,1907368.5929,44.68,-0.0181388849847,-0.0616688158519,0.865594276511,0.496602946501,1.68999987602,0.0,0.0,0.0,0.0,0.0,0.0,1.68999987602,0.0,0.0,0.0,0.0,0.0,0.0,6.75999950409,0.0,0.0,0.0,0.0,0.0,0.0,99999.0,0.0,0.0,0.0,0.0,0.0,0.0,99999.0,0.0,0.0,0.0,0.0,0.0,0.0,99999.0
940490297008,964,940490297008,local_origin,198455.61437,1907368.3747,45.14,-0.00756617195957,-0.0642633974496,0.866899473883,0.494265385163,1.68999987602,0.0,0.0,0.0,0.0,0.0,0.0,1.68999987602,0.0,0.0,0.0,0.0,0.0,0.0,6.75999950409,0.0,0.0,0.0,0.0,0.0,0.0,99999.0,0.0,0.0,0.0,0.0,0.0,0.0,99999.0,0.0,0.0,0.0,0.0,0.0,0.0,99999.0
940679297008,965,940679297008,local_origin,198455.473424,1907368.19955,45.48,0.00239863994826,-0.0493641223403,0.868311879824,0.493550310817,1.68999987602,0.0,0.0,0.0,0.0,0.0,0.0,1.68999987602,0.0,0.0,0.0,0.0,0.0,0.0,6.75999950409,0.0,0.0,0.0,0.0,0.0,0.0,99999.0,0.0,0.0,0.0,0.0,0.0,0.0,99999.0,0.0,0.0,0.0,0.0,0.0,0.0,99999.0
940886297008,966,940886297008,local_origin,198455.289261,1907367.98072,45.96,0.0100506427713,-0.0178040610983,0.869371394992,0.493736141636,1.68999987602,0.0,0.0,0.0,0.0,0.0,0.0,1.68999987602,0.0,0.0,0.0,0.0,0.0,0.0,6.75999950409,0.0,0.0,0.0,0.0,0.0,0.0,99999.0,0.0,0.0,0.0,0.0,0.0,0.0,99999.0,0.0,0.0,0.0,0.0,0.0,0.0,99999.0
940886297008,967,940886297008,local_origin,198455.11574,1907367.76174,46.38,0.0137291625053,-0.000886959609347,0.869788379582,0.493233107307,1.68999987602,0.0,0.0,0.0,0.0,0.0,0.0,1.68999987602,0.0,0.0,0.0,0.0,0.0,0.0,6.75999950409,0.0,0.0,0.0,0.0,0.0,0.0,99999.0,0.0,0.0,0.0,0.0,0.0,0.0,99999.0,0.0,0.0,0.0,0.0,0.0,0.0,99999.0
941074297008,968,941074297008,local_origin,198454.963827,1907367.5646,46.83,0.0231766211542,-0.00113665310681,0.86976008131,0.492928953514,1.68999987602,0.0,0.0,0.0,0.0,0.0,0.0,1.68999987602,0.0,0.0,0.0,0.0,0.0,0.0,6.75999950409,0.0,0.0,0.0,0.0,0.0,0.0,99999.0,0.0,0.0,0.0,0.0,0.0,0.0,99999.0,0.0,0.0,0.0,0.0,0.0,0.0,99999.0
941285297008,969,941285297008,local_origin,198454.833849,1907367.41143,47.2,0.0226117014163,-0.00228730055397,0.869775684128,0.492923663983,1.68999987602,0.0,0.0,0.0,0.0,0.0,0.0,1.68999987602,0.0,0.0,0.0,0.0,0.0,0.0,6.75999950409,0.0,0.0,0.0,0.0,0.0,0.0,99999.0,0.0,0.0,0.0,0.0,0.0,0.0,99999.0,0.0,0.0,0.0,0.0,0.0,0.0,99999.0
941473297008,970,941473297008,local_origin,198454.704033,1907367.26935,47.55,0.0212404211344,-0.00192643133559,0.86972297814,0.493079176875,1.68999987602,0.0,0.0,0.0,0.0,0.0,0.0,1.68999987602,0.0,0.0,0.0,0.0,0.0,0.0,6.75999950409,0.0,0.0,0.0,0.0,0.0,0.0,99999.0,0.0,0.0,0.0,0.0,0.0,0.0,99999.0,0.0,0.0,0.0,0.0,0.0,0.0,99999.0
941473297008,971,941473297008,local_origin,198454.542128,1907367.11665,48.0,0.0242474014563,-0.00743828976659,0.869304530893,0.493625736705,1.68999987602,0.0,0.0,0.0,0.0,0.0,0.0,1.68999987602,0.0,0.0,0.0,0.0,0.0,0.0,6.75999950409,0.0,0.0,0.0,0.0,0.0,0.0,99999.0,0.0,0.0,0.0,0.0,0.0,0.0,99999.0,0.0,0.0,0.0,0.0,0.0,0.0,99999.0
941682297008,972,941682297008,local_origin,198454.390866,1907366.9638,48.39,0.0287871450211,-0.0138317001234,0.868590990762,0.494499418727,1.68999987602,0.0,0.0,0.0,0.0,0.0,0.0,1.68999987602,0.0,0.0,0.0,0.0,0.0,0.0,6.75999950409,0.0,0.0,0.0,0.0,0.0,0.0,99999.0,0.0,0.0,0.0,0.0,0.0,0.0,99999.0,0.0,0.0,0.0,0.0,0.0,0.0,99999.0
941869297008,973,941869297008,local_origin,198454.239928,1907366.8331,48.7,0.0296108170258,-0.014904086893,0.86798898313,0.495475723799,1.68999987602,0.0,0.0,0.0,0.0,0.0,0.0,1.68999987602,0.0,0.0,0.0,0.0,0.0,0.0,6.75999950409,0.0,0.0,0.0,0.0,0.0,0.0,99999.0,0.0,0.0,0.0,0.0,0.0,0.0,99999.0,0.0,0.0,0.0,0.0,0.0,0.0,99999.0
941869297008,974,941869297008,local_origin,198454.110762,1907366.73531,49.01,0.0281586665873,-0.0154706391412,0.867324866925,0.496704463473,1.68999987602,0.0,0.0,0.0,0.0,0.0,0.0,1.68999987602,0.0,0.0,0.0,0.0,0.0,0.0,6.75999950409,0.0,0.0,0.0,0.0,0.0,0.0,99999.0,0.0,0.0,0.0,0.0,0.0,0.0,99999.0,0.0,0.0,0.0,0.0,0.0,0.0,99999.0
942074297008,975,942074297008,local_origin,198453.970791,1907366.6266,49.36,0.0206148951801,-0.0340562036932,0.866252637042,0.498017640154,1.68999987602,0.0,0.0,0.0,0.0,0.0,0.0,1.68999987602,0.0,0.0,0.0,0.0,0.0,0.0,6.75999950409,0.0,0.0,0.0,0.0,0.0,0.0,99999.0,0.0,0.0,0.0,0.0,0.0,0.0,99999.0,0.0,0.0,0.0,0.0,0.0,0.0,99999.0
942282297008,976,942282297008,local_origin,198453.841462,1907366.51773,49.68,0.0206148951801,-0.0340562036932,0.866252637042,0.498017640154,1.68999987602,0.0,0.0,0.0,0.0,0.0,0.0,1.68999987602,0.0,0.0,0.0,0.0,0.0,0.0,6.75999950409,0.0,0.0,0.0,0.0,0.0,0.0,99999.0,0.0,0.0,0.0,0.0,0.0,0.0,99999.0,0.0,0.0,0.0,0.0,0.0,0.0,99999.0
942282297008,977,942282297008,local_origin,198453.744385,1907366.43054,49.95,0.0121594089636,-0.0434647348219,0.865038232583,0.499671713998,1.68999987602,0.0,0.0,0.0,0.0,0.0,0.0,1.68999987602,0.0,0.0,0.0,0.0,0.0,0.0,6.75999950409,0.0,0.0,0.0,0.0,0.0,0.0,99999.0,0.0,0.0,0.0,0.0,0.0,0.0,99999.0,0.0,0.0,0.0,0.0,0.0,0.0,99999.0
942467297008,978,942467297008,local_origin,198453.647144,1907366.33228,50.26,0.00949560374296,-0.0431018232162,0.864300668408,0.501035348987,1.68999987602,0.0,0.0,0.0,0.0,0.0,0.0,1.68999987602,0.0,0.0,0.0,0.0,0.0,0.0,6.75999950409,0.0,0.0,0.0,0.0,0.0,0.0,99999.0,0.0,0.0,0.0,0.0,0.0,0.0,99999.0,0.0,0.0,0.0,0.0,0.0,0.0,99999.0
942678297008,979,942678297008,local_origin,198453.52797,1907366.19004,50.59,0.00920108374243,-0.0432726825798,0.863496289985,0.502411158498,1.68999987602,0.0,0.0,0.0,0.0,0.0,0.0,1.68999987602,0.0,0.0,0.0,0.0,0.0,0.0,6.75999950409,0.0,0.0,0.0,0.0,0.0,0.0,99999.0,0.0,0.0,0.0,0.0,0.0,0.0,99999.0,0.0,0.0,0.0,0.0,0.0,0.0,99999.0
942678297008,980,942678297008,local_origin,198453.441047,1907366.06947,50.94,0.00690635446823,-0.0384220720518,0.862489636407,0.504566817912,1.68999987602,0.0,0.0,0.0,0.0,0.0,0.0,1.68999987602,0.0,0.0,0.0,0.0,0.0,0.0,6.75999950409,0.0,0.0,0.0,0.0,0.0,0.0,99999.0,0.0,0.0,0.0,0.0,0.0,0.0,99999.0,0.0,0.0,0.0,0.0,0.0,0.0,99999.0
942883297008,981,942883297008,local_origin,198453.364928,1907365.95983,51.26,0.0025601676766,-0.0239663319802,0.861714236503,0.506821107573,1.68999987602,0.0,0.0,0.0,0.0,0.0,0.0,1.68999987602,0.0,0.0,0.0,0.0,0.0,0.0,6.75999950409,0.0,0.0,0.0,0.0,0.0,0.0,99999.0,0.0,0.0,0.0,0.0,0.0,0.0,99999.0,0.0,0.0,0.0,0.0,0.0,0.0,99999.0
943070297008,982,943070297008,local_origin,198453.288972,1907365.86125,51.61,-0.00100063729215,-0.0135596384496,0.861043812967,0.508348981588,1.68999987602,0.0,0.0,0.0,0.0,0.0,0.0,1.68999987602,0.0,0.0,0.0,0.0,0.0,0.0,6.75999950409,0.0,0.0,0.0,0.0,0.0,0.0,99999.0,0.0,0.0,0.0,0.0,0.0,0.0,99999.0,0.0,0.0,0.0,0.0,0.0,0.0,99999.0
943070297008,983,943070297008,local_origin,198453.213016,1907365.76268,51.99,-0.00278438248986,-0.000193090312994,0.860446474415,0.509533192832,1.68999987602,0.0,0.0,0.0,0.0,0.0,0.0,1.68999987602,0.0,0.0,0.0,0.0,0.0,0.0,6.75999950409,0.0,0.0,0.0,0.0,0.0,0.0,99999.0,0.0,0.0,0.0,0.0,0.0,0.0,99999.0,0.0,0.0,0.0,0.0,0.0,0.0,99999.0
943281297008,984,943281297008,local_origin,198453.094492,1907365.66473,52.47,-0.00345480157219,0.00879041119834,0.859374321361,0.511259786021,1.68999987602,0.0,0.0,0.0,0.0,0.0,0.0,1.68999987602,0.0,0.0,0.0,0.0,0.0,0.0,6.75999950409,0.0,0.0,0.0,0.0,0.0,0.0,99999.0,0.0,0.0,0.0,0.0,0.0,0.0,99999.0,0.0,0.0,0.0,0.0,0.0,0.0,99999.0
943469297008,985,943469297008,local_origin,198452.975968,1907365.56678,52.99,-0.012786148026,-0.000998088136009,0.858620097539,0.512451994182,1.68999987602,0.0,0.0,0.0,0.0,0.0,0.0,1.68999987602,0.0,0.0,0.0,0.0,0.0,0.0,6.75999950409,0.0,0.0,0.0,0.0,0.0,0.0,99999.0,0.0,0.0,0.0,0.0,0.0,0.0,99999.0,0.0,0.0,0.0,0.0,0.0,0.0,99999.0
943680297008,986,943680297008,local_origin,198452.857606,1907365.47991,53.44,-0.022069696718,-0.0154358522336,0.85780911296,0.513262300072,1.68999987602,0.0,0.0,0.0,0.0,0.0,0.0,1.68999987602,0.0,0.0,0.0,0.0,0.0,0.0,6.75999950409,0.0,0.0,0.0,0.0,0.0,0.0,99999.0,0.0,0.0,0.0,0.0,0.0,0.0,99999.0,0.0,0.0,0.0,0.0,0.0,0.0,99999.0
943680297008,987,943680297008,local_origin,198452.685547,1907365.36059,54.1,-0.0253549750228,-0.0266132443382,0.856931398989,0.514118116676,1.68999987602,0.0,0.0,0.0,0.0,0.0,0.0,1.68999987602,0.0,0.0,0.0,0.0,0.0,0.0,6.75999950409,0.0,0.0,0.0,0.0,0.0,0.0,99999.0,0.0,0.0,0.0,0.0,0.0,0.0,99999.0,0.0,0.0,0.0,0.0,0.0,0.0,99999.0
943887297008,988,943887297008,local_origin,198452.556381,1907365.2628,54.54,-0.0253549750228,-0.0266132443382,0.856931398989,0.514118116676,1.68999987602,0.0,0.0,0.0,0.0,0.0,0.0,1.68999987602,0.0,0.0,0.0,0.0,0.0,0.0,6.75999950409,0.0,0.0,0.0,0.0,0.0,0.0,99999.0,0.0,0.0,0.0,0.0,0.0,0.0,99999.0,0.0,0.0,0.0,0.0,0.0,0.0,99999.0
944078297008,989,944078297008,local_origin,198452.416572,1907365.16516,54.99,-0.0233625730323,-0.0310333246115,0.856848984925,0.514102071556,1.68999987602,0.0,0.0,0.0,0.0,0.0,0.0,1.68999987602,0.0,0.0,0.0,0.0,0.0,0.0,6.75999950409,0.0,0.0,0.0,0.0,0.0,0.0,99999.0,0.0,0.0,0.0,0.0,0.0,0.0,99999.0,0.0,0.0,0.0,0.0,0.0,0.0,99999.0
944078297008,990,944078297008,local_origin,198452.254993,1907365.03462,55.42,-0.0211509795807,-0.0318522977343,0.857150929571,0.513644187281,1.68999987602,0.0,0.0,0.0,0.0,0.0,0.0,1.68999987602,0.0,0.0,0.0,0.0,0.0,0.0,6.75999950409,0.0,0.0,0.0,0.0,0.0,0.0,99999.0,0.0,0.0,0.0,0.0,0.0,0.0,99999.0,0.0,0.0,0.0,0.0,0.0,0.0,99999.0
944262297008,991,944262297008,local_origin,198452.061,1907364.87132,56.0,-0.0208937733209,-0.0309276260109,0.857461126696,0.513193285607,1.68999987602,0.0,0.0,0.0,0.0,0.0,0.0,1.68999987602,0.0,0.0,0.0,0.0,0.0,0.0,6.75999950409,0.0,0.0,0.0,0.0,0.0,0.0,99999.0,0.0,0.0,0.0,0.0,0.0,0.0,99999.0,0.0,0.0,0.0,0.0,0.0,0.0,99999.0
944469297008,992,944469297008,local_origin,198451.877974,1907364.73001,56.52,-0.0178972233657,-0.0286174792751,0.858029123205,0.512490734558,1.68999987602,0.0,0.0,0.0,0.0,0.0,0.0,1.68999987602,0.0,0.0,0.0,0.0,0.0,0.0,6.75999950409,0.0,0.0,0.0,0.0,0.0,0.0,99999.0,0.0,0.0,0.0,0.0,0.0,0.0,99999.0,0.0,0.0,0.0,0.0,0.0,0.0,99999.0
944678297008,993,944678297008,local_origin,198451.684143,1907364.57779,57.11,-0.0179029903924,-0.0279572262325,0.85878432657,0.511260556735,1.68999987602,0.0,0.0,0.0,0.0,0.0,0.0,1.68999987602,0.0,0.0,0.0,0.0,0.0,0.0,6.75999950409,0.0,0.0,0.0,0.0,0.0,0.0,99999.0,0.0,0.0,0.0,0.0,0.0,0.0,99999.0,0.0,0.0,0.0,0.0,0.0,0.0,99999.0
944678297008,994,944678297008,local_origin,198451.511759,1907364.43632,57.58,-0.0163607928368,-0.0285092011191,0.859391960192,0.510259746273,1.68999987602,0.0,0.0,0.0,0.0,0.0,0.0,1.68999987602,0.0,0.0,0.0,0.0,0.0,0.0,6.75999950409,0.0,0.0,0.0,0.0,0.0,0.0,99999.0,0.0,0.0,0.0,0.0,0.0,0.0,99999.0,0.0,0.0,0.0,0.0,0.0,0.0,99999.0
944872297008,995,944872297008,local_origin,198451.328571,1907364.28394,58.03,-0.0133927232462,-0.0299631291695,0.859987711441,0.509258266526,1.68999987602,0.0,0.0,0.0,0.0,0.0,0.0,1.68999987602,0.0,0.0,0.0,0.0,0.0,0.0,6.75999950409,0.0,0.0,0.0,0.0,0.0,0.0,99999.0,0.0,0.0,0.0,0.0,0.0,0.0,99999.0,0.0,0.0,0.0,0.0,0.0,0.0,99999.0
945057297008,996,945057297008,local_origin,198451.145382,1907364.13156,58.57,-0.0111543078922,-0.033451420742,0.860728876447,0.50784090532,1.68999987602,0.0,0.0,0.0,0.0,0.0,0.0,1.68999987602,0.0,0.0,0.0,0.0,0.0,0.0,6.75999950409,0.0,0.0,0.0,0.0,0.0,0.0,99999.0,0.0,0.0,0.0,0.0,0.0,0.0,99999.0,0.0,0.0,0.0,0.0,0.0,0.0,99999.0
945266297008,997,945266297008,local_origin,198450.962193,1907363.97918,59.09,-0.00879651941096,-0.0315769067571,0.861604637856,0.506520451938,1.68999987602,0.0,0.0,0.0,0.0,0.0,0.0,1.68999987602,0.0,0.0,0.0,0.0,0.0,0.0,6.75999950409,0.0,0.0,0.0,0.0,0.0,0.0,99999.0,0.0,0.0,0.0,0.0,0.0,0.0,99999.0,0.0,0.0,0.0,0.0,0.0,0.0,99999.0
945266297008,998,945266297008,local_origin,198450.789809,1907363.83771,59.6,-0.00731713745872,-0.0303520276402,0.862565500129,0.504981159949,1.68999987602,0.0,0.0,0.0,0.0,0.0,0.0,1.68999987602,0.0,0.0,0.0,0.0,0.0,0.0,6.75999950409,0.0,0.0,0.0,0.0,0.0,0.0,99999.0,0.0,0.0,0.0,0.0,0.0,0.0,99999.0,0.0,0.0,0.0,0.0,0.0,0.0,99999.0
945473297008,999,945473297008,local_origin,198450.671123,1907363.72869,60.01,-0.00789988934134,-0.0278099981825,0.863809047613,0.502989189757,1.68999987602,0.0,0.0,0.0,0.0,0.0,0.0,1.68999987602,0.0,0.0,0.0,0.0,0.0,0.0,6.75999950409,0.0,0.0,0.0,0.0,0.0,0.0,99999.0,0.0,0.0,0.0,0.0,0.0,0.0,99999.0,0.0,0.0,0.0,0.0,0.0,0.0,99999.0
945660297008,1000,945660297008,local_origin,198450.488097,1907363.58738,60.5,-0.00789988934134,-0.0278099981825,0.863809047613,0.502989189757,1.68999987602,0.0,0.0,0.0,0.0,0.0,0.0,1.68999987602,0.0,0.0,0.0,0.0,0.0,0.0,6.75999950409,0.0,0.0,0.0,0.0,0.0,0.0,99999.0,0.0,0.0,0.0,0.0,0.0,0.0,99999.0,0.0,0.0,0.0,0.0,0.0,0.0,99999.0
945660297008,1001,945660297008,local_origin,198450.315712,1907363.44592,60.97,-0.00788790955042,-0.0238466316988,0.864911240156,0.501295986111,1.68999987602,0.0,0.0,0.0,0.0,0.0,0.0,1.68999987602,0.0,0.0,0.0,0.0,0.0,0.0,6.75999950409,0.0,0.0,0.0,0.0,0.0,0.0,99999.0,0.0,0.0,0.0,0.0,0.0,0.0,99999.0,0.0,0.0,0.0,0.0,0.0,0.0,99999.0
945868297008,1002,945868297008,local_origin,198450.132524,1907363.29354,61.44,-0.00530342855434,-0.0207122583018,0.865408871232,0.500609989507,1.68999987602,0.0,0.0,0.0,0.0,0.0,0.0,1.68999987602,0.0,0.0,0.0,0.0,0.0,0.0,6.75999950409,0.0,0.0,0.0,0.0,0.0,0.0,99999.0,0.0,0.0,0.0,0.0,0.0,0.0,99999.0,0.0,0.0,0.0,0.0,0.0,0.0,99999.0
946078297008,1003,946078297008,local_origin,198449.949335,1907363.14116,61.91,-0.00842701611241,-0.021301711482,0.865494331523,0.500394628858,1.68999987602,0.0,0.0,0.0,0.0,0.0,0.0,1.68999987602,0.0,0.0,0.0,0.0,0.0,0.0,6.75999950409,0.0,0.0,0.0,0.0,0.0,0.0,99999.0,0.0,0.0,0.0,0.0,0.0,0.0,99999.0,0.0,0.0,0.0,0.0,0.0,0.0,99999.0
946078297008,1004,946078297008,local_origin,198449.7447,1907362.97801,62.37,-0.0107275354318,-0.0232506260993,0.865080343574,0.500979368369,1.68999987602,0.0,0.0,0.0,0.0,0.0,0.0,1.68999987602,0.0,0.0,0.0,0.0,0.0,0.0,6.75999950409,0.0,0.0,0.0,0.0,0.0,0.0,99999.0,0.0,0.0,0.0,0.0,0.0,0.0,99999.0,0.0,0.0,0.0,0.0,0.0,0.0,99999.0
946267297008,1005,946267297008,local_origin,198449.571991,1907362.8144,62.82,-0.00978454506601,-0.0217164641062,0.8647764049,0.501591893269,1.68999987602,0.0,0.0,0.0,0.0,0.0,0.0,1.68999987602,0.0,0.0,0.0,0.0,0.0,0.0,6.75999950409,0.0,0.0,0.0,0.0,0.0,0.0,99999.0,0.0,0.0,0.0,0.0,0.0,0.0,99999.0,0.0,0.0,0.0,0.0,0.0,0.0,99999.0
946473297008,1006,946473297008,local_origin,198449.421054,1907362.6837,63.22,-0.0104050678296,-0.0205408731623,0.864341250465,0.502378353274,1.68999987602,0.0,0.0,0.0,0.0,0.0,0.0,1.68999987602,0.0,0.0,0.0,0.0,0.0,0.0,6.75999950409,0.0,0.0,0.0,0.0,0.0,0.0,99999.0,0.0,0.0,0.0,0.0,0.0,0.0,99999.0,0.0,0.0,0.0,0.0,0.0,0.0,99999.0
946661297008,1007,946661297008,local_origin,198449.216094,1907362.49841,63.73,-0.010254655408,-0.0209741144401,0.863955021341,0.503027484006,1.68999987602,0.0,0.0,0.0,0.0,0.0,0.0,1.68999987602,0.0,0.0,0.0,0.0,0.0,0.0,6.75999950409,0.0,0.0,0.0,0.0,0.0,0.0,99999.0,0.0,0.0,0.0,0.0,0.0,0.0,99999.0,0.0,0.0,0.0,0.0,0.0,0.0,99999.0
946661297008,1008,946661297008,local_origin,198449.097244,1907362.37831,64.06,-0.0104430587518,-0.01835641731,0.863200730634,0.504418955928,1.68999987602,0.0,0.0,0.0,0.0,0.0,0.0,1.68999987602,0.0,0.0,0.0,0.0,0.0,0.0,6.75999950409,0.0,0.0,0.0,0.0,0.0,0.0,99999.0,0.0,0.0,0.0,0.0,0.0,0.0,99999.0,0.0,0.0,0.0,0.0,0.0,0.0,99999.0
946869297008,1009,946869297008,local_origin,198448.913731,1907362.20378,64.52,-0.0110302377969,-0.0169073153693,0.862185264742,0.50619072078,1.68999987602,0.0,0.0,0.0,0.0,0.0,0.0,1.68999987602,0.0,0.0,0.0,0.0,0.0,0.0,6.75999950409,0.0,0.0,0.0,0.0,0.0,0.0,99999.0,0.0,0.0,0.0,0.0,0.0,0.0,99999.0,0.0,0.0,0.0,0.0,0.0,0.0,99999.0
947075297008,1010,947075297008,local_origin,198448.762631,1907362.06201,64.91,-0.0113767465387,-0.0168310793044,0.861061302769,0.508095185258,1.68999987602,0.0,0.0,0.0,0.0,0.0,0.0,1.68999987602,0.0,0.0,0.0,0.0,0.0,0.0,6.75999950409,0.0,0.0,0.0,0.0,0.0,0.0,99999.0,0.0,0.0,0.0,0.0,0.0,0.0,99999.0,0.0,0.0,0.0,0.0,0.0,0.0,99999.0
947075297008,1011,947075297008,local_origin,198448.568638,1907361.89871,65.36,-0.0114531022179,-0.0162258502441,0.860365515371,0.509290416358,1.68999987602,0.0,0.0,0.0,0.0,0.0,0.0,1.68999987602,0.0,0.0,0.0,0.0,0.0,0.0,6.75999950409,0.0,0.0,0.0,0.0,0.0,0.0,99999.0,0.0,0.0,0.0,0.0,0.0,0.0,99999.0,0.0,0.0,0.0,0.0,0.0,0.0,99999.0
947263297008,1012,947263297008,local_origin,198448.406733,1907361.74601,65.81,-0.00448144280999,-0.00660994678401,0.859715001044,0.510711603797,1.68999987602,0.0,0.0,0.0,0.0,0.0,0.0,1.68999987602,0.0,0.0,0.0,0.0,0.0,0.0,6.75999950409,0.0,0.0,0.0,0.0,0.0,0.0,99999.0,0.0,0.0,0.0,0.0,0.0,0.0,99999.0,0.0,0.0,0.0,0.0,0.0,0.0,99999.0
947472297008,1013,947472297008,local_origin,198448.234349,1907361.60455,66.2,-0.000251778712231,-0.0020464973859,0.859251786439,0.511548742504,1.68999987602,0.0,0.0,0.0,0.0,0.0,0.0,1.68999987602,0.0,0.0,0.0,0.0,0.0,0.0,6.75999950409,0.0,0.0,0.0,0.0,0.0,0.0,99999.0,0.0,0.0,0.0,0.0,0.0,0.0,99999.0,0.0,0.0,0.0,0.0,0.0,0.0,99999.0
947472297008,1014,947472297008,local_origin,198448.051323,1907361.46324,66.58,0.00571815122181,-0.00330109970397,0.858991916746,0.511946571873,1.68999987602,0.0,0.0,0.0,0.0,0.0,0.0,1.68999987602,0.0,0.0,0.0,0.0,0.0,0.0,6.75999950409,0.0,0.0,0.0,0.0,0.0,0.0,99999.0,0.0,0.0,0.0,0.0,0.0,0.0,99999.0,0.0,0.0,0.0,0.0,0.0,0.0,99999.0
947680297008,1015,947680297008,local_origin,198447.868297,1907361.32193,66.97,0.014179121327,-0.00864930268708,0.858831024597,0.511989661294,1.68999987602,0.0,0.0,0.0,0.0,0.0,0.0,1.68999987602,0.0,0.0,0.0,0.0,0.0,0.0,6.75999950409,0.0,0.0,0.0,0.0,0.0,0.0,99999.0,0.0,0.0,0.0,0.0,0.0,0.0,99999.0,0.0,0.0,0.0,0.0,0.0,0.0,99999.0
947867297008,1016,947867297008,local_origin,198447.631573,1907361.14818,67.42,0.0217628425984,-0.0197757442226,0.858741268731,0.511564983165,1.68999987602,0.0,0.0,0.0,0.0,0.0,0.0,1.68999987602,0.0,0.0,0.0,0.0,0.0,0.0,6.75999950409,0.0,0.0,0.0,0.0,0.0,0.0,99999.0,0.0,0.0,0.0,0.0,0.0,0.0,99999.0,0.0,0.0,0.0,0.0,0.0,0.0,99999.0
947867297008,1017,947867297008,local_origin,198447.427425,1907361.01826,67.86,0.0217493680186,-0.0214785663788,0.85935329063,0.510467979466,1.68999987602,0.0,0.0,0.0,0.0,0.0,0.0,1.68999987602,0.0,0.0,0.0,0.0,0.0,0.0,6.75999950409,0.0,0.0,0.0,0.0,0.0,0.0,99999.0,0.0,0.0,0.0,0.0,0.0,0.0,99999.0,0.0,0.0,0.0,0.0,0.0,0.0,99999.0
948075297008,1018,948075297008,local_origin,198447.255366,1907360.89895,68.32,0.0149630875743,-0.0190293432868,0.860050635664,0.509634078725,1.68999987602,0.0,0.0,0.0,0.0,0.0,0.0,1.68999987602,0.0,0.0,0.0,0.0,0.0,0.0,6.75999950409,0.0,0.0,0.0,0.0,0.0,0.0,99999.0,0.0,0.0,0.0,0.0,0.0,0.0,99999.0,0.0,0.0,0.0,0.0,0.0,0.0,99999.0
948265297008,1019,948265297008,local_origin,198447.051219,1907360.76903,68.8,0.00989080143373,-0.0139918486425,0.86015925054,0.509737642252,1.68999987602,0.0,0.0,0.0,0.0,0.0,0.0,1.68999987602,0.0,0.0,0.0,0.0,0.0,0.0,6.75999950409,0.0,0.0,0.0,0.0,0.0,0.0,99999.0,0.0,0.0,0.0,0.0,0.0,0.0,99999.0,0.0,0.0,0.0,0.0,0.0,0.0,99999.0
948265297008,1020,948265297008,local_origin,198446.858038,1907360.6611,69.25,0.00571533302852,-0.00970388494615,0.859937134756,0.510275703764,1.68999987602,0.0,0.0,0.0,0.0,0.0,0.0,1.68999987602,0.0,0.0,0.0,0.0,0.0,0.0,6.75999950409,0.0,0.0,0.0,0.0,0.0,0.0,99999.0,0.0,0.0,0.0,0.0,0.0,0.0,99999.0,0.0,0.0,0.0,0.0,0.0,0.0,99999.0
948460297008,1021,948460297008,local_origin,198446.600518,1907360.52088,69.77,0.00571533302852,-0.00970388494615,0.859937134756,0.510275703764,1.68999987602,0.0,0.0,0.0,0.0,0.0,0.0,1.68999987602,0.0,0.0,0.0,0.0,0.0,0.0,6.75999950409,0.0,0.0,0.0,0.0,0.0,0.0,99999.0,0.0,0.0,0.0,0.0,0.0,0.0,99999.0,0.0,0.0,0.0,0.0,0.0,0.0,99999.0
948687297008,1022,948687297008,local_origin,198446.385728,1907360.39112,70.3,0.00285728710138,-0.0158171356254,0.859598361179,0.5107174479,1.68999987602,0.0,0.0,0.0,0.0,0.0,0.0,1.68999987602,0.0,0.0,0.0,0.0,0.0,0.0,6.75999950409,0.0,0.0,0.0,0.0,0.0,0.0,99999.0,0.0,0.0,0.0,0.0,0.0,0.0,99999.0,0.0,0.0,0.0,0.0,0.0,0.0,99999.0
948874297008,1023,948874297008,local_origin,198446.160459,1907360.27258,70.83,-0.00429043749806,-0.0159426313587,0.859307174279,0.511193314592,1.68999987602,0.0,0.0,0.0,0.0,0.0,0.0,1.68999987602,0.0,0.0,0.0,0.0,0.0,0.0,6.75999950409,0.0,0.0,0.0,0.0,0.0,0.0,99999.0,0.0,0.0,0.0,0.0,0.0,0.0,99999.0,0.0,0.0,0.0,0.0,0.0,0.0,99999.0
948874297008,1024,948874297008,local_origin,198445.956636,1907360.16481,71.3,-0.00942926456203,-0.0152361874938,0.859167717483,0.511380270244,1.68999987602,0.0,0.0,0.0,0.0,0.0,0.0,1.68999987602,0.0,0.0,0.0,0.0,0.0,0.0,6.75999950409,0.0,0.0,0.0,0.0,0.0,0.0,99999.0,0.0,0.0,0.0,0.0,0.0,0.0,99999.0,0.0,0.0,0.0,0.0,0.0,0.0,99999.0
949083297008,1025,949083297008,local_origin,198445.752814,1907360.05703,71.87,-0.0106893440644,-0.0164867604096,0.859270095688,0.511144624653,1.68999987602,0.0,0.0,0.0,0.0,0.0,0.0,1.68999987602,0.0,0.0,0.0,0.0,0.0,0.0,6.75999950409,0.0,0.0,0.0,0.0,0.0,0.0,99999.0,0.0,0.0,0.0,0.0,0.0,0.0,99999.0,0.0,0.0,0.0,0.0,0.0,0.0,99999.0
949271297008,1026,949271297008,local_origin,198445.538187,1907359.93834,72.37,-0.00984778585891,-0.0166499874383,0.859455104424,0.510845106183,1.68999987602,0.0,0.0,0.0,0.0,0.0,0.0,1.68999987602,0.0,0.0,0.0,0.0,0.0,0.0,6.75999950409,0.0,0.0,0.0,0.0,0.0,0.0,99999.0,0.0,0.0,0.0,0.0,0.0,0.0,99999.0,0.0,0.0,0.0,0.0,0.0,0.0,99999.0
949271297008,1027,949271297008,local_origin,198445.312755,1907359.80873,72.92,-0.0114531625432,-0.0190035798418,0.859283677493,0.511017857432,1.68999987602,0.0,0.0,0.0,0.0,0.0,0.0,1.68999987602,0.0,0.0,0.0,0.0,0.0,0.0,6.75999950409,0.0,0.0,0.0,0.0,0.0,0.0,99999.0,0.0,0.0,0.0,0.0,0.0,0.0,99999.0,0.0,0.0,0.0,0.0,0.0,0.0,99999.0
949467297008,1028,949467297008,local_origin,198445.0017,1907359.64715,73.68,-0.0132461655343,-0.020802209143,0.85900455402,0.511373624042,1.68999987602,0.0,0.0,0.0,0.0,0.0,0.0,1.68999987602,0.0,0.0,0.0,0.0,0.0,0.0,6.75999950409,0.0,0.0,0.0,0.0,0.0,0.0,99999.0,0.0,0.0,0.0,0.0,0.0,0.0,99999.0,0.0,0.0,0.0,0.0,0.0,0.0,99999.0
949678297008,1029,949678297008,local_origin,198444.808519,1907359.53922,74.17,-0.0145083067213,-0.0251875129456,0.858548415431,0.511907918076,1.68999987602,0.0,0.0,0.0,0.0,0.0,0.0,1.68999987602,0.0,0.0,0.0,0.0,0.0,0.0,6.75999950409,0.0,0.0,0.0,0.0,0.0,0.0,99999.0,0.0,0.0,0.0,0.0,0.0,0.0,99999.0,0.0,0.0,0.0,0.0,0.0,0.0,99999.0
949678297008,1030,949678297008,local_origin,198444.496977,1907359.34442,74.94,-0.0153171522055,-0.0285865434019,0.858123839874,0.512417476112,1.68999987602,0.0,0.0,0.0,0.0,0.0,0.0,1.68999987602,0.0,0.0,0.0,0.0,0.0,0.0,6.75999950409,0.0,0.0,0.0,0.0,0.0,0.0,99999.0,0.0,0.0,0.0,0.0,0.0,0.0,99999.0,0.0,0.0,0.0,0.0,0.0,0.0,99999.0
949867297008,1031,949867297008,local_origin,198444.22849,1907359.18221,75.63,-0.017770471256,-0.0334765144372,0.857731365269,0.512699169462,1.68999987602,0.0,0.0,0.0,0.0,0.0,0.0,1.68999987602,0.0,0.0,0.0,0.0,0.0,0.0,6.75999950409,0.0,0.0,0.0,0.0,0.0,0.0,99999.0,0.0,0.0,0.0,0.0,0.0,0.0,99999.0,0.0,0.0,0.0,0.0,0.0,0.0,99999.0
950073297008,1032,950073297008,local_origin,198443.95984,1907359.00893,76.34,-0.021801485745,-0.0402594344903,0.85733282063,0.512722447163,1.68999987602,0.0,0.0,0.0,0.0,0.0,0.0,1.68999987602,0.0,0.0,0.0,0.0,0.0,0.0,6.75999950409,0.0,0.0,0.0,0.0,0.0,0.0,99999.0,0.0,0.0,0.0,0.0,0.0,0.0,99999.0,0.0,0.0,0.0,0.0,0.0,0.0,99999.0
950270297008,1033,950270297008,local_origin,198443.637006,1907358.76999,77.12,-0.0242028611082,-0.0443727046069,0.85707996889,0.51269797301,1.68999987602,0.0,0.0,0.0,0.0,0.0,0.0,1.68999987602,0.0,0.0,0.0,0.0,0.0,0.0,6.75999950409,0.0,0.0,0.0,0.0,0.0,0.0,99999.0,0.0,0.0,0.0,0.0,0.0,0.0,99999.0,0.0,0.0,0.0,0.0,0.0,0.0,99999.0
950270297008,1034,950270297008,local_origin,198443.367869,1907358.56349,77.88,-0.0218910869528,-0.0415370455063,0.857172395137,0.512884918065,1.68999987602,0.0,0.0,0.0,0.0,0.0,0.0,1.68999987602,0.0,0.0,0.0,0.0,0.0,0.0,6.75999950409,0.0,0.0,0.0,0.0,0.0,0.0,99999.0,0.0,0.0,0.0,0.0,0.0,0.0,99999.0,0.0,0.0,0.0,0.0,0.0,0.0,99999.0
950462297008,1035,950462297008,local_origin,198443.13082,1907358.36759,78.55,-0.0123454113285,-0.0267361545176,0.8577263545,0.513262378962,1.68999987602,0.0,0.0,0.0,0.0,0.0,0.0,1.68999987602,0.0,0.0,0.0,0.0,0.0,0.0,6.75999950409,0.0,0.0,0.0,0.0,0.0,0.0,99999.0,0.0,0.0,0.0,0.0,0.0,0.0,99999.0,0.0,0.0,0.0,0.0,0.0,0.0,99999.0
950667297008,1036,950667297008,local_origin,198442.86152,1907358.15001,79.34,0.000126668437332,-0.0107177200003,0.858521794762,0.512665039135,1.68999987602,0.0,0.0,0.0,0.0,0.0,0.0,1.68999987602,0.0,0.0,0.0,0.0,0.0,0.0,6.75999950409,0.0,0.0,0.0,0.0,0.0,0.0,99999.0,0.0,0.0,0.0,0.0,0.0,0.0,99999.0,0.0,0.0,0.0,0.0,0.0,0.0,99999.0
950876297008,1037,950876297008,local_origin,198442.592221,1907357.93244,80.11,0.00318839228764,-0.00321529074662,0.859513881558,0.511092343388,1.68999987602,0.0,0.0,0.0,0.0,0.0,0.0,1.68999987602,0.0,0.0,0.0,0.0,0.0,0.0,6.75999950409,0.0,0.0,0.0,0.0,0.0,0.0,99999.0,0.0,0.0,0.0,0.0,0.0,0.0,99999.0,0.0,0.0,0.0,0.0,0.0,0.0,99999.0
950876297008,1038,950876297008,local_origin,198442.355335,1907357.74761,80.77,0.00318839228764,-0.00321529074662,0.859513881558,0.511092343388,1.68999987602,0.0,0.0,0.0,0.0,0.0,0.0,1.68999987602,0.0,0.0,0.0,0.0,0.0,0.0,6.75999950409,0.0,0.0,0.0,0.0,0.0,0.0,99999.0,0.0,0.0,0.0,0.0,0.0,0.0,99999.0,0.0,0.0,0.0,0.0,0.0,0.0,99999.0
951065297008,1039,951065297008,local_origin,198442.064914,1907357.54142,81.62,0.00558718390329,0.00075721663889,0.860416846526,0.509559672868,1.68999987602,0.0,0.0,0.0,0.0,0.0,0.0,1.68999987602,0.0,0.0,0.0,0.0,0.0,0.0,6.75999950409,0.0,0.0,0.0,0.0,0.0,0.0,99999.0,0.0,0.0,0.0,0.0,0.0,0.0,99999.0,0.0,0.0,0.0,0.0,0.0,0.0,99999.0
951273297008,1040,951273297008,local_origin,198441.763851,1907357.33539,82.37,0.00831622619497,0.00293856417252,0.861246593783,0.508110726042,1.68999987602,0.0,0.0,0.0,0.0,0.0,0.0,1.68999987602,0.0,0.0,0.0,0.0,0.0,0.0,6.75999950409,0.0,0.0,0.0,0.0,0.0,0.0,99999.0,0.0,0.0,0.0,0.0,0.0,0.0,99999.0,0.0,0.0,0.0,0.0,0.0,0.0,99999.0
951462297008,1041,951462297008,local_origin,198441.377164,1907357.09738,83.31,0.00775185288639,0.0019175729911,0.861943691882,0.506941124506,1.68999987602,0.0,0.0,0.0,0.0,0.0,0.0,1.68999987602,0.0,0.0,0.0,0.0,0.0,0.0,6.75999950409,0.0,0.0,0.0,0.0,0.0,0.0,99999.0,0.0,0.0,0.0,0.0,0.0,0.0,99999.0,0.0,0.0,0.0,0.0,0.0,0.0,99999.0
951462297008,1042,951462297008,local_origin,198441.108677,1907356.93518,83.81,0.00488981715838,0.000302567084682,0.862162120901,0.506608799198,1.68999987602,0.0,0.0,0.0,0.0,0.0,0.0,1.68999987602,0.0,0.0,0.0,0.0,0.0,0.0,6.75999950409,0.0,0.0,0.0,0.0,0.0,0.0,99999.0,0.0,0.0,0.0,0.0,0.0,0.0,99999.0,0.0,0.0,0.0,0.0,0.0,0.0,99999.0
951669297008,1043,951669297008,local_origin,198440.776175,1907356.76283,84.51,0.0043717942346,-0.00310479807877,0.862001081003,0.506878076063,1.68999987602,0.0,0.0,0.0,0.0,0.0,0.0,1.68999987602,0.0,0.0,0.0,0.0,0.0,0.0,6.75999950409,0.0,0.0,0.0,0.0,0.0,0.0,99999.0,0.0,0.0,0.0,0.0,0.0,0.0,99999.0,0.0,0.0,0.0,0.0,0.0,0.0,99999.0
951880297008,1044,951880297008,local_origin,198440.443674,1907356.59049,85.19,-0.00136682725692,-0.0108194679547,0.861497937578,0.507643944558,1.68999987602,0.0,0.0,0.0,0.0,0.0,0.0,1.68999987602,0.0,0.0,0.0,0.0,0.0,0.0,6.75999950409,0.0,0.0,0.0,0.0,0.0,0.0,99999.0,0.0,0.0,0.0,0.0,0.0,0.0,99999.0,0.0,0.0,0.0,0.0,0.0,0.0,99999.0
951880297008,1045,951880297008,local_origin,198440.121977,1907356.42906,85.8,-0.0131862964698,-0.0280312136983,0.860236538095,0.508953309421,1.68999987602,0.0,0.0,0.0,0.0,0.0,0.0,1.68999987602,0.0,0.0,0.0,0.0,0.0,0.0,6.75999950409,0.0,0.0,0.0,0.0,0.0,0.0,99999.0,0.0,0.0,0.0,0.0,0.0,0.0,99999.0,0.0,0.0,0.0,0.0,0.0,0.0,99999.0
952068297008,1046,952068297008,local_origin,198439.789638,1907356.26779,86.48,-0.00187195981252,-0.035992798057,0.859585503573,0.50971931129,1.68999987602,0.0,0.0,0.0,0.0,0.0,0.0,1.68999987602,0.0,0.0,0.0,0.0,0.0,0.0,6.75999950409,0.0,0.0,0.0,0.0,0.0,0.0,99999.0,0.0,0.0,0.0,0.0,0.0,0.0,99999.0,0.0,0.0,0.0,0.0,0.0,0.0,99999.0
952275297008,1047,952275297008,local_origin,198439.43569,1907356.08469,87.1,0.0103823093334,-0.0405310968693,0.859103169931,0.510089385553,1.68999987602,0.0,0.0,0.0,0.0,0.0,0.0,1.68999987602,0.0,0.0,0.0,0.0,0.0,0.0,6.75999950409,0.0,0.0,0.0,0.0,0.0,0.0,99999.0,0.0,0.0,0.0,0.0,0.0,0.0,99999.0,0.0,0.0,0.0,0.0,0.0,0.0,99999.0
952463297008,1048,952463297008,local_origin,198439.081741,1907355.90158,87.63,0.0240940735727,-0.0277743569552,0.859402162661,0.509976453896,1.68999987602,0.0,0.0,0.0,0.0,0.0,0.0,1.68999987602,0.0,0.0,0.0,0.0,0.0,0.0,6.75999950409,0.0,0.0,0.0,0.0,0.0,0.0,99999.0,0.0,0.0,0.0,0.0,0.0,0.0,99999.0,0.0,0.0,0.0,0.0,0.0,0.0,99999.0
952463297008,1049,952463297008,local_origin,198438.771011,1907355.76215,88.15,0.0354906063597,-0.0286343417722,0.859361886355,0.509330579891,1.68999987602,0.0,0.0,0.0,0.0,0.0,0.0,1.68999987602,0.0,0.0,0.0,0.0,0.0,0.0,6.75999950409,0.0,0.0,0.0,0.0,0.0,0.0,99999.0,0.0,0.0,0.0,0.0,0.0,0.0,99999.0,0.0,0.0,0.0,0.0,0.0,0.0,99999.0
952675297008,1050,952675297008,local_origin,198438.471086,1907355.63363,88.67,0.0392330577262,-0.040486033894,0.859291186144,0.50837024466,1.68999987602,0.0,0.0,0.0,0.0,0.0,0.0,1.68999987602,0.0,0.0,0.0,0.0,0.0,0.0,6.75999950409,0.0,0.0,0.0,0.0,0.0,0.0,99999.0,0.0,0.0,0.0,0.0,0.0,0.0,99999.0,0.0,0.0,0.0,0.0,0.0,0.0,99999.0
952871297008,1051,952871297008,local_origin,198438.171322,1907355.51619,89.25,0.0392330577262,-0.040486033894,0.859291186144,0.50837024466,1.68999987602,0.0,0.0,0.0,0.0,0.0,0.0,1.68999987602,0.0,0.0,0.0,0.0,0.0,0.0,6.75999950409,0.0,0.0,0.0,0.0,0.0,0.0,99999.0,0.0,0.0,0.0,0.0,0.0,0.0,99999.0,0.0,0.0,0.0,0.0,0.0,0.0,99999.0
953082297008,1052,953082297008,local_origin,198437.86108,1907355.40998,89.75,0.0341544578398,-0.0516568254522,0.859644059038,0.507126352259,1.68999987602,0.0,0.0,0.0,0.0,0.0,0.0,1.68999987602,0.0,0.0,0.0,0.0,0.0,0.0,6.75999950409,0.0,0.0,0.0,0.0,0.0,0.0,99999.0,0.0,0.0,0.0,0.0,0.0,0.0,99999.0,0.0,0.0,0.0,0.0,0.0,0.0,99999.0
953271297008,1053,953271297008,local_origin,198437.615014,1907355.32498,90.2,0.0375564799425,-0.0568425667254,0.859866527238,0.505952555837,1.68999987602,0.0,0.0,0.0,0.0,0.0,0.0,1.68999987602,0.0,0.0,0.0,0.0,0.0,0.0,6.75999950409,0.0,0.0,0.0,0.0,0.0,0.0,99999.0,0.0,0.0,0.0,0.0,0.0,0.0,99999.0,0.0,0.0,0.0,0.0,0.0,0.0,99999.0
953271297008,1054,953271297008,local_origin,198437.390394,1907355.25074,90.6,0.0403288520029,-0.0659591146656,0.860322638351,0.503853090523,1.68999987602,0.0,0.0,0.0,0.0,0.0,0.0,1.68999987602,0.0,0.0,0.0,0.0,0.0,0.0,6.75999950409,0.0,0.0,0.0,0.0,0.0,0.0,99999.0,0.0,0.0,0.0,0.0,0.0,0.0,99999.0,0.0,0.0,0.0,0.0,0.0,0.0,99999.0
953476297008,1055,953476297008,local_origin,198437.155133,1907355.17666,91.03,0.039827326234,-0.0640774964519,0.861994634992,0.501271491088,1.68999987602,0.0,0.0,0.0,0.0,0.0,0.0,1.68999987602,0.0,0.0,0.0,0.0,0.0,0.0,6.75999950409,0.0,0.0,0.0,0.0,0.0,0.0,99999.0,0.0,0.0,0.0,0.0,0.0,0.0,99999.0,0.0,0.0,0.0,0.0,0.0,0.0,99999.0
953664297008,1056,953664297008,local_origin,198436.962765,1907355.1241,91.42,0.0358875652779,-0.0544975616077,0.864231509988,0.498844660773,1.68999987602,0.0,0.0,0.0,0.0,0.0,0.0,1.68999987602,0.0,0.0,0.0,0.0,0.0,0.0,6.75999950409,0.0,0.0,0.0,0.0,0.0,0.0,99999.0,0.0,0.0,0.0,0.0,0.0,0.0,99999.0,0.0,0.0,0.0,0.0,0.0,0.0,99999.0
953874297008,1057,953874297008,local_origin,198436.791843,1907355.0823,91.76,0.0325048577631,-0.0571928481178,0.865272591695,0.496966552605,1.68999987602,0.0,0.0,0.0,0.0,0.0,0.0,1.68999987602,0.0,0.0,0.0,0.0,0.0,0.0,6.75999950409,0.0,0.0,0.0,0.0,0.0,0.0,99999.0,0.0,0.0,0.0,0.0,0.0,0.0,99999.0,0.0,0.0,0.0,0.0,0.0,0.0,99999.0
953874297008,1058,953874297008,local_origin,198436.653172,1907355.06218,92.08,0.0277987174458,-0.0575912871102,0.866232789143,0.495531260336,1.68999987602,0.0,0.0,0.0,0.0,0.0,0.0,1.68999987602,0.0,0.0,0.0,0.0,0.0,0.0,6.75999950409,0.0,0.0,0.0,0.0,0.0,0.0,99999.0,0.0,0.0,0.0,0.0,0.0,0.0,99999.0,0.0,0.0,0.0,0.0,0.0,0.0,99999.0
954064297008,1059,954064297008,local_origin,198436.503859,1907355.04222,92.35,0.0246201758187,-0.0495514702479,0.867936400467,0.493583735026,1.68999987602,0.0,0.0,0.0,0.0,0.0,0.0,1.68999987602,0.0,0.0,0.0,0.0,0.0,0.0,6.75999950409,0.0,0.0,0.0,0.0,0.0,0.0,99999.0,0.0,0.0,0.0,0.0,0.0,0.0,99999.0,0.0,0.0,0.0,0.0,0.0,0.0,99999.0
954273297008,1060,954273297008,local_origin,198436.354546,1907355.02226,92.63,0.0311897397629,-0.0321652317674,0.869889215561,0.491208052306,1.68999987602,0.0,0.0,0.0,0.0,0.0,0.0,1.68999987602,0.0,0.0,0.0,0.0,0.0,0.0,6.75999950409,0.0,0.0,0.0,0.0,0.0,0.0,99999.0,0.0,0.0,0.0,0.0,0.0,0.0,99999.0,0.0,0.0,0.0,0.0,0.0,0.0,99999.0
954273297008,1061,954273297008,local_origin,198436.248126,1907355.02382,92.82,0.0266559487553,-0.0262769411756,0.871217626309,0.489467905349,1.68999987602,0.0,0.0,0.0,0.0,0.0,0.0,1.68999987602,0.0,0.0,0.0,0.0,0.0,0.0,6.75999950409,0.0,0.0,0.0,0.0,0.0,0.0,99999.0,0.0,0.0,0.0,0.0,0.0,0.0,99999.0,0.0,0.0,0.0,0.0,0.0,0.0,99999.0
954461297008,1062,954461297008,local_origin,198436.120585,1907355.03677,93.02,0.0256886042206,-0.019073557656,0.873069091208,0.486545637108,1.68999987602,0.0,0.0,0.0,0.0,0.0,0.0,1.68999987602,0.0,0.0,0.0,0.0,0.0,0.0,6.75999950409,0.0,0.0,0.0,0.0,0.0,0.0,99999.0,0.0,0.0,0.0,0.0,0.0,0.0,99999.0,0.0,0.0,0.0,0.0,0.0,0.0,99999.0
954693297008,1063,954693297008,local_origin,198435.972084,1907355.07218,93.21,0.0279595544578,-0.00696999224315,0.875496976124,0.482363687813,1.68999987602,0.0,0.0,0.0,0.0,0.0,0.0,1.68999987602,0.0,0.0,0.0,0.0,0.0,0.0,6.75999950409,0.0,0.0,0.0,0.0,0.0,0.0,99999.0,0.0,0.0,0.0,0.0,0.0,0.0,99999.0,0.0,0.0,0.0,0.0,0.0,0.0,99999.0
954859297008,1064,954859297008,local_origin,198435.844868,1907355.10727,93.35,0.0281990289152,0.00459262321953,0.877427559887,0.478857598594,1.68999987602,0.0,0.0,0.0,0.0,0.0,0.0,1.68999987602,0.0,0.0,0.0,0.0,0.0,0.0,6.75999950409,0.0,0.0,0.0,0.0,0.0,0.0,99999.0,0.0,0.0,0.0,0.0,0.0,0.0,99999.0,0.0,0.0,0.0,0.0,0.0,0.0,99999.0
955067297008,1065,955067297008,local_origin,198435.69653,1907355.15375,93.47,0.0258319184176,0.0188469718898,0.879318074242,0.475160212932,1.68999987602,0.0,0.0,0.0,0.0,0.0,0.0,1.68999987602,0.0,0.0,0.0,0.0,0.0,0.0,6.75999950409,0.0,0.0,0.0,0.0,0.0,0.0,99999.0,0.0,0.0,0.0,0.0,0.0,0.0,99999.0,0.0,0.0,0.0,0.0,0.0,0.0,99999.0
955067297008,1066,955067297008,local_origin,198435.569638,1907355.211,93.54,0.0161206910461,0.014232182238,0.881222999574,0.472211386278,1.68999987602,0.0,0.0,0.0,0.0,0.0,0.0,1.68999987602,0.0,0.0,0.0,0.0,0.0,0.0,6.75999950409,0.0,0.0,0.0,0.0,0.0,0.0,99999.0,0.0,0.0,0.0,0.0,0.0,0.0,99999.0,0.0,0.0,0.0,0.0,0.0,0.0,99999.0
955260297008,1067,955260297008,local_origin,198435.421463,1907355.26855,93.6,0.0161206910461,0.014232182238,0.881222999574,0.472211386278,1.68999987602,0.0,0.0,0.0,0.0,0.0,0.0,1.68999987602,0.0,0.0,0.0,0.0,0.0,0.0,6.75999950409,0.0,0.0,0.0,0.0,0.0,0.0,99999.0,0.0,0.0,0.0,0.0,0.0,0.0,99999.0,0.0,0.0,0.0,0.0,0.0,0.0,99999.0
955472297008,1068,955472297008,local_origin,198435.26297,1907355.34841,93.65,0.0112079342643,-0.0146729334231,0.882867539074,0.469258985726,1.68999987602,0.0,0.0,0.0,0.0,0.0,0.0,1.68999987602,0.0,0.0,0.0,0.0,0.0,0.0,6.75999950409,0.0,0.0,0.0,0.0,0.0,0.0,99999.0,0.0,0.0,0.0,0.0,0.0,0.0,99999.0,0.0,0.0,0.0,0.0,0.0,0.0,99999.0
955472297008,1069,955472297008,local_origin,198435.136079,1907355.40566,93.7,0.015344294257,-0.0423323821956,0.882247403997,0.468627826949,1.68999987602,0.0,0.0,0.0,0.0,0.0,0.0,1.68999987602,0.0,0.0,0.0,0.0,0.0,0.0,6.75999950409,0.0,0.0,0.0,0.0,0.0,0.0,99999.0,0.0,0.0,0.0,0.0,0.0,0.0,99999.0,0.0,0.0,0.0,0.0,0.0,0.0,99999.0
955684297008,1070,955684297008,local_origin,198434.977586,1907355.48552,93.74,0.0219871924032,-0.0528299648154,0.880369445846,0.470823955432,1.68999987602,0.0,0.0,0.0,0.0,0.0,0.0,1.68999987602,0.0,0.0,0.0,0.0,0.0,0.0,6.75999950409,0.0,0.0,0.0,0.0,0.0,0.0,99999.0,0.0,0.0,0.0,0.0,0.0,0.0,99999.0,0.0,0.0,0.0,0.0,0.0,0.0,99999.0
955874297008,1071,955874297008,local_origin,198434.819419,1907355.58753,93.78,0.0305050918022,-0.0639661971399,0.876013357777,0.477051739325,1.68999987602,0.0,0.0,0.0,0.0,0.0,0.0,1.68999987602,0.0,0.0,0.0,0.0,0.0,0.0,6.75999950409,0.0,0.0,0.0,0.0,0.0,0.0,99999.0,0.0,0.0,0.0,0.0,0.0,0.0,99999.0,0.0,0.0,0.0,0.0,0.0,0.0,99999.0
956060297008,1072,956060297008,local_origin,198434.724616,1907355.65538,93.76,0.0296738531656,-0.065972519406,0.869622809525,0.488388429712,1.68999987602,0.0,0.0,0.0,0.0,0.0,0.0,1.68999987602,0.0,0.0,0.0,0.0,0.0,0.0,6.75999950409,0.0,0.0,0.0,0.0,0.0,0.0,99999.0,0.0,0.0,0.0,0.0,0.0,0.0,99999.0,0.0,0.0,0.0,0.0,0.0,0.0,99999.0
956060297008,1073,956060297008,local_origin,198434.651097,1907355.72291,93.8,0.0288100800887,-0.0698753875762,0.862734265253,0.499976996525,1.68999987602,0.0,0.0,0.0,0.0,0.0,0.0,1.68999987602,0.0,0.0,0.0,0.0,0.0,0.0,6.75999950409,0.0,0.0,0.0,0.0,0.0,0.0,99999.0,0.0,0.0,0.0,0.0,0.0,0.0,99999.0,0.0,0.0,0.0,0.0,0.0,0.0,99999.0
956269297008,1074,956269297008,local_origin,198434.58822,1907355.79029,93.83,0.034281378591,-0.0757173587456,0.856238144979,0.509850868145,1.68999987602,0.0,0.0,0.0,0.0,0.0,0.0,1.68999987602,0.0,0.0,0.0,0.0,0.0,0.0,6.75999950409,0.0,0.0,0.0,0.0,0.0,0.0,99999.0,0.0,0.0,0.0,0.0,0.0,0.0,99999.0,0.0,0.0,0.0,0.0,0.0,0.0,99999.0
956480297008,1075,956480297008,local_origin,198434.557269,1907355.85721,93.77,0.0350937658274,-0.0694360995311,0.848082918014,0.524120615751,1.68999987602,0.0,0.0,0.0,0.0,0.0,0.0,1.68999987602,0.0,0.0,0.0,0.0,0.0,0.0,6.75999950409,0.0,0.0,0.0,0.0,0.0,0.0,99999.0,0.0,0.0,0.0,0.0,0.0,0.0,99999.0,0.0,0.0,0.0,0.0,0.0,0.0,99999.0
956669297008,1076,956669297008,local_origin,198434.547764,1907355.93488,93.68,0.03663261787,-0.0535109025259,0.83734635914,0.542812775692,1.68999987602,0.0,0.0,0.0,0.0,0.0,0.0,1.68999987602,0.0,0.0,0.0,0.0,0.0,0.0,6.75999950409,0.0,0.0,0.0,0.0,0.0,0.0,99999.0,0.0,0.0,0.0,0.0,0.0,0.0,99999.0,0.0,0.0,0.0,0.0,0.0,0.0,99999.0
956669297008,1077,956669297008,local_origin,198434.549064,1907356.02347,93.59,0.0391993207474,-0.0372749384279,0.829161196266,0.556386289213,1.68999987602,0.0,0.0,0.0,0.0,0.0,0.0,1.68999987602,0.0,0.0,0.0,0.0,0.0,0.0,6.75999950409,0.0,0.0,0.0,0.0,0.0,0.0,99999.0,0.0,0.0,0.0,0.0,0.0,0.0,99999.0,0.0,0.0,0.0,0.0,0.0,0.0,99999.0
956877297008,1078,956877297008,local_origin,198434.571485,1907356.10068,93.52,0.0379083437472,-0.0316842821853,0.822100599993,0.567194558532,1.68999987602,0.0,0.0,0.0,0.0,0.0,0.0,1.68999987602,0.0,0.0,0.0,0.0,0.0,0.0,6.75999950409,0.0,0.0,0.0,0.0,0.0,0.0,99999.0,0.0,0.0,0.0,0.0,0.0,0.0,99999.0,0.0,0.0,0.0,0.0,0.0,0.0,99999.0
957069297008,1079,957069297008,local_origin,198434.594232,1907356.20003,93.43,0.0422369328705,-0.0287716115693,0.815300381322,0.576778574573,1.68999987602,0.0,0.0,0.0,0.0,0.0,0.0,1.68999987602,0.0,0.0,0.0,0.0,0.0,0.0,6.75999950409,0.0,0.0,0.0,0.0,0.0,0.0,99999.0,0.0,0.0,0.0,0.0,0.0,0.0,99999.0,0.0,0.0,0.0,0.0,0.0,0.0,99999.0
957069297008,1080,957069297008,local_origin,198434.627458,1907356.28816,93.35,0.0414150641788,-0.0192056040365,0.809724572677,0.585031668916,1.68999987602,0.0,0.0,0.0,0.0,0.0,0.0,1.68999987602,0.0,0.0,0.0,0.0,0.0,0.0,6.75999950409,0.0,0.0,0.0,0.0,0.0,0.0,99999.0,0.0,0.0,0.0,0.0,0.0,0.0,99999.0,0.0,0.0,0.0,0.0,0.0,0.0,99999.0
957279297008,1081,957279297008,local_origin,198434.661009,1907356.39843,93.29,0.0368703033604,-0.0143445215311,0.806000880005,0.590590718573,1.68999987602,0.0,0.0,0.0,0.0,0.0,0.0,1.68999987602,0.0,0.0,0.0,0.0,0.0,0.0,6.75999950409,0.0,0.0,0.0,0.0,0.0,0.0,99999.0,0.0,0.0,0.0,0.0,0.0,0.0,99999.0,0.0,0.0,0.0,0.0,0.0,0.0,99999.0
957468297008,1082,957468297008,local_origin,198434.716168,1907356.53054,93.21,0.0332985843538,-0.0167060744417,0.801192693591,0.59724566059,1.68999987602,0.0,0.0,0.0,0.0,0.0,0.0,1.68999987602,0.0,0.0,0.0,0.0,0.0,0.0,6.75999950409,0.0,0.0,0.0,0.0,0.0,0.0,99999.0,0.0,0.0,0.0,0.0,0.0,0.0,99999.0,0.0,0.0,0.0,0.0,0.0,0.0,99999.0
957677297008,1083,957677297008,local_origin,198434.760849,1907356.67387,93.17,0.0267241728898,-0.0142774247767,0.798729795066,0.600926524793,1.68999987602,0.0,0.0,0.0,0.0,0.0,0.0,1.68999987602,0.0,0.0,0.0,0.0,0.0,0.0,6.75999950409,0.0,0.0,0.0,0.0,0.0,0.0,99999.0,0.0,0.0,0.0,0.0,0.0,0.0,99999.0,0.0,0.0,0.0,0.0,0.0,0.0,99999.0
957869297008,1084,957869297008,local_origin,198434.805367,1907356.80614,93.12,0.0158341994192,-0.0160023650002,0.796384405004,0.604371642211,1.68999987602,0.0,0.0,0.0,0.0,0.0,0.0,1.68999987602,0.0,0.0,0.0,0.0,0.0,0.0,6.75999950409,0.0,0.0,0.0,0.0,0.0,0.0,99999.0,0.0,0.0,0.0,0.0,0.0,0.0,99999.0,0.0,0.0,0.0,0.0,0.0,0.0,99999.0
957869297008,1085,957869297008,local_origin,198434.849722,1907356.92733,93.08,0.00146941361837,-0.0181428240512,0.794570722584,0.606898711131,1.68999987602,0.0,0.0,0.0,0.0,0.0,0.0,1.68999987602,0.0,0.0,0.0,0.0,0.0,0.0,6.75999950409,0.0,0.0,0.0,0.0,0.0,0.0,99999.0,0.0,0.0,0.0,0.0,0.0,0.0,99999.0,0.0,0.0,0.0,0.0,0.0,0.0,99999.0
958077297008,1086,958077297008,local_origin,198434.883435,1907357.04867,93.02,-0.0101461970442,-0.0236995159818,0.792297230825,0.60959042451,1.68999987602,0.0,0.0,0.0,0.0,0.0,0.0,1.68999987602,0.0,0.0,0.0,0.0,0.0,0.0,6.75999950409,0.0,0.0,0.0,0.0,0.0,0.0,99999.0,0.0,0.0,0.0,0.0,0.0,0.0,99999.0,0.0,0.0,0.0,0.0,0.0,0.0,99999.0
958267297008,1087,958267297008,local_origin,198434.906344,1907357.1591,92.97,-0.0188544906665,-0.0266308492217,0.790059616116,0.612161015611,1.68999987602,0.0,0.0,0.0,0.0,0.0,0.0,1.68999987602,0.0,0.0,0.0,0.0,0.0,0.0,6.75999950409,0.0,0.0,0.0,0.0,0.0,0.0,99999.0,0.0,0.0,0.0,0.0,0.0,0.0,99999.0,0.0,0.0,0.0,0.0,0.0,0.0,99999.0
958473297008,1088,958473297008,local_origin,198434.929416,1907357.2806,92.9,-0.0177235295004,-0.0282513741664,0.787448696131,0.615477284164,1.68999987602,0.0,0.0,0.0,0.0,0.0,0.0,1.68999987602,0.0,0.0,0.0,0.0,0.0,0.0,6.75999950409,0.0,0.0,0.0,0.0,0.0,0.0,99999.0,0.0,0.0,0.0,0.0,0.0,0.0,99999.0,0.0,0.0,0.0,0.0,0.0,0.0,99999.0
958664297008,1089,958664297008,local_origin,198434.941358,1907357.36904,92.88,-0.0107913011248,-0.0322344487796,0.784143433552,0.619647935322,1.68999987602,0.0,0.0,0.0,0.0,0.0,0.0,1.68999987602,0.0,0.0,0.0,0.0,0.0,0.0,6.75999950409,0.0,0.0,0.0,0.0,0.0,0.0,99999.0,0.0,0.0,0.0,0.0,0.0,0.0,99999.0,0.0,0.0,0.0,0.0,0.0,0.0,99999.0
